SALE TYPE,SOLD DATE,PROPERTY TYPE,ADDRESS,CITY,STATE OR PROVINCE,ZIP OR POSTAL CODE,PRICE,BEDS,BATHS,LOCATION,SQUARE FEET,LOT SIZE,YEAR BUILT,DAYS ON MARKET,$/SQUARE FEET,HOA/MONTH,STATUS,NEXT OPEN HOUSE START TIME,NEXT OPEN HOUSE END TIME,URL (SEE http://www.redfin.com/buy-a-home/comparative-market-analysis FOR INFO ON PRICING),SOURCE,MLS#,FAVORITE,INTERESTED,LATITUDE,LONGITUDE
PAST SALE,June-21-2017,Single Family Residential,16 Kendall Dr,Chapel Hill,NC,27517,740000,4,2.5,The Oaks,3631,26571,1983,1066,204,4,Sold,,,http://www.redfin.com/NC/Chapel-Hill/16-Kendall-Dr-27517/home/44393679,TMLS,2113594,N,Y,35.9170627,-79.0196541
PAST SALE,July-27-2017,Single Family Residential,12815 Morehead,Chapel Hill,NC,27517,680000,4,4.0,Governors Club,3935,66646,1994,1030,173,206,Sold,,,http://www.redfin.com/NC/Chapel-Hill/12815-Morehead-27517/home/41368079,TMLS,2053381,N,Y,35.8431505,-79.0455473
PAST SALE,July-30-2018,Townhouse,308 W Barbee Chapel Rd,Chapel Hill,NC,27517,739900,4,3.5,Meadowmont,3913,4356,2002,662,189,282,Sold,,,http://www.redfin.com/NC/Chapel-Hill/308-W-Barbee-Chapel-Rd-27517/home/44408982,TMLS,2114616,N,Y,35.9072677,-79.0145086
PAST SALE,June-8-2018,Single Family Residential,108 New Castle Dr,Chapel Hill,NC,27517,995000,4,4.5,The Oaks,4276,26571,1987,714,233,,Sold,,,http://www.redfin.com/NC/Chapel-Hill/108-New-Castle-Dr-27517/home/44413739,TMLS,2187842,N,Y,35.9209917,-79.0067142
PAST SALE,August-3-2018,Single Family Residential,55203 Broughton,Chapel Hill,NC,27517,925000,3,3.5,Governors Club,3612,37026,2014,658,256,244,Sold,,,http://www.redfin.com/NC/Chapel-Hill/55203-Broughton-27517/home/41375513,TMLS,2189859,N,Y,35.8498406,-79.0423247
PAST SALE,March-14-2018,Single Family Residential,11020 Governors Dr,Chapel Hill,NC,27517,795000,4,4.0,Governors Club,5086,43560,1993,800,156,222,Sold,,,http://www.redfin.com/NC/Chapel-Hill/11020-Governors-Dr-27517/home/41375036,TMLS,2161123,N,Y,35.8448299,-79.0455032
PAST SALE,August-15-2018,Single Family Residential,97630 Franklin Rdg,Chapel Hill,NC,27517,1316108,4,5.5,Estates,7408,33105,2006,646,178,242,Sold,,,http://www.redfin.com/NC/Chapel-Hill/97630-Franklin-Rdg-27517/home/41377825,TMLS,2177345,N,Y,35.8497131,-79.0514522
PAST SALE,July-3-2018,Single Family Residential,709 Pinehurst Dr,Chapel Hill,NC,27517,1000000,3,3.0,The Oaks,3816,34848,1990,689,262,100,Sold,,,http://www.redfin.com/NC/Chapel-Hill/709-Pinehurst-Dr-27517/home/44394285,TMLS,2187999,N,Y,35.93063,-79.0076306
PAST SALE,April-1-2020,Townhouse,207 Oval Park Pl,Chapel Hill,NC,27517,900000,4,6.0,Meadowmont,4445,5662,2002,51,202,396,Sold,,,http://www.redfin.com/NC/Chapel-Hill/207-Oval-Park-Pl-27517/home/44408992,TMLS,2269732,N,Y,35.9077235,-79.0139787
PAST SALE,April-1-2020,Single Family Residential,116 Eagles Watch Ln,Chapel Hill,NC,27517,705500,6,6.5,Westfall,5823,30492,2016,51,121,130,Sold,,,http://www.redfin.com/NC/Chapel-Hill/116-Eagles-Watch-Ln-27517/home/41392757,TMLS,2256101,N,Y,35.820899,-79.0546628
PAST SALE,June-8-2018,Single Family Residential,10004 Vail Dr,Chapel Hill,NC,27514,890000,6,5.0,Governors Forest,5294,31406,2006,714,168,89,Sold,,,http://www.redfin.com/NC/Chapel-Hill/10004-Vail-Dr-27517/home/41374251,TMLS,2177341,N,Y,35.8523671,-79.0142215
PAST SALE,October-31-2019,Single Family Residential,82104 Ehringhaus,Chapel Hill,NC,27517,679000,4,4.0,Morehead Forest,3772,11935,2000,204,180,269,Sold,,,http://www.redfin.com/NC/Chapel-Hill/82104-Ehringhaus-27517/home/41372992,TMLS,2247116,N,Y,35.83585,-79.0338
PAST SALE,April-30-2020,Single Family Residential,48 Bear Tree Crk,Chapel Hill,NC,27517,650000,4,4.5,The Preserve at Jordan Lake,5215,14374,2003,22,125,92,Sold,,,http://www.redfin.com/NC/Chapel-Hill/48-Bear-Tree-Crk-27517/home/41375563,TMLS,2280414,N,Y,35.7703494,-79.0542876
PAST SALE,May-8-2019,Single Family Residential,23 Leatherwood Ln,Chapel Hill,NC,27517,875048,4,4.0,Westfall,3763,44953,2019,380,233,109,Sold,,,http://www.redfin.com/NC/Chapel-Hill/23-Leatherwood-Ln-27517/home/41392748,TMLS,2217712,N,Y,35.8224802,-79.055501
PAST SALE,August-22-2018,Single Family Residential,13100 Morehead,Chapel Hill,NC,27517,975000,5,6.0,Estates,7444,23958,2004,639,131,244,Sold,,,http://www.redfin.com/NC/Chapel-Hill/13100-Morehead-27517/home/41373293,TMLS,2136839,N,Y,35.8463783,-79.0534268
PAST SALE,June-6-2018,Single Family Residential,1160 The Preserve Trl,Chapel Hill,NC,27517-7636,650000,4,3.5,The Preserve at Jordan Lake,4852,21780,2005,716,134,83,Sold,,,http://www.redfin.com/NC/Chapel-Hill/1160-The-Preserve-Trl-27517/home/41379792,TMLS,2173281,N,Y,35.7815142,-79.053162
PAST SALE,,Condo/Co-op,511 Cedar Berry Ln #101,Chapel Hill,NC,27517,650000,2,2.5,,2314,,2003,,281,,,,,http://www.redfin.com/NC/Chapel-Hill/511-Cedar-Berry-Ln-27517/unit-101/home/43601165,,,N,Y,35.9073796,-79.0062969
PAST SALE,,Single Family Residential,107 Tweed Pl,Chapel Hill,NC,27517,870000,2,2.5,,3080,16248,1996,,282,,,,,http://www.redfin.com/NC/Chapel-Hill/107-Tweed-Pl-27517/home/43551396,,,N,Y,35.9204184,-79.0014145
PAST SALE,,Single Family Residential,100 Patton Pl,Chapel Hill,NC,27517,850000,5,3.5,,3462,32060,1994,,246,,,,,http://www.redfin.com/NC/Chapel-Hill/100-Patton-Pl-27517/home/43549325,,,N,Y,35.9292865,-79.0029824
PAST SALE,October-19-2018,Single Family Residential,103 Springdale Way,Chapel Hill,NC,27517,729000,6,5.5,Meadowmont,5569,12937,2005,581,131,41,Sold,,,http://www.redfin.com/NC/Chapel-Hill/103-Springdale-Way-27517/home/43600229,TMLS,2205913,N,Y,35.9148909,-79.0046164
PAST SALE,March-15-2018,Townhouse,211 Meadowmont Ln #1,Chapel Hill,NC,27517,937500,3,3.5,Meadowmont,2976,,2016,799,315,326,Sold,,,http://www.redfin.com/NC/Chapel-Hill/211-Meadowmont-Ln-27517/unit-1/home/161337021,TMLS,2027354,N,Y,35.907386,-79.0091419
PAST SALE,June-15-2018,Townhouse,217 Meadowmont Ln #4,Chapel Hill,NC,27517,870000,3,3.5,Meadowmont,2811,,2017,707,309,326,Sold,,,http://www.redfin.com/NC/Chapel-Hill/217-Meadowmont-Ln-27517/unit-4/home/60389405,TMLS,1980971,N,Y,35.907386,-79.0091419
PAST SALE,October-21-2019,Single Family Residential,1000 Mocker Nut Ln Lot 12,Chapel Hill,NC,27517,779417,4,4.0,South Grove,4009,21344,2019,214,194,78,Sold,,,http://www.redfin.com/NC/Chapel-Hill/1000-Mocker-Nut-Ln-27517/unit-12/home/148526217,TMLS,2260792,N,Y,35.8653365,-79.0712534
PAST SALE,,Condo/Co-op,522 Cedar Club Cir #202,Chapel Hill,NC,27517,670000,2,2.0,,2457,,2005,,273,,,,,http://www.redfin.com/NC/Chapel-Hill/522-Cedar-Club-Cir-27517/unit-202/home/43598329,,,N,Y,35.90642,-79.0073186
PAST SALE,December-14-2019,Single Family Residential,62 Ruffed Grouse,Chapel Hill,NC,27517,702595,3,3.5,The Preserve at Jordan Lake,3300,21780,2018,160,213,83,Sold,,,http://www.redfin.com/NC/Chapel-Hill/62-Ruffed-Grouse-27517/home/41372909,TMLS,2216320,N,Y,35.774648,-79.06038
PAST SALE,January-30-2020,Single Family Residential,40 Wood Duck Ct,Chapel Hill,NC,27517,750000,4,4.5,The Preserve at Jordan Lake,5534,28314,2006,113,136,83,Sold,,,http://www.redfin.com/NC/Chapel-Hill/40-Wood-Duck-27517/home/41374801,TMLS,2259695,N,Y,35.7743418,-79.058547
PAST SALE,May-31-2019,Townhouse,201 Oval Park Pl,Chapel Hill,NC,27517,944500,3,5.0,Summit Park,4240,5662,2001,357,223,396,Sold,,,http://www.redfin.com/NC/Chapel-Hill/201-Oval-Park-Pl-27517/home/44409489,TMLS,2230095,N,Y,35.907421,-79.0138903
PAST SALE,October-25-2019,Single Family Residential,161 Leatherwood Ln,Chapel Hill,NC,27517,762500,5,4.0,Westfall,3953,45476,2018,210,193,120,Sold,,,http://www.redfin.com/NC/Chapel-Hill/161-Leatherwood-Ln-27517/home/41392730,TMLS,2171655,N,Y,35.8246734,-79.0563401
PAST SALE,November-20-2017,Single Family Residential,209 Copper Beech Ct,Chapel Hill,NC,27517-8115,705000,5,4.5,Beechridge,3828,45563,2016,914,184,17,Sold,,,http://www.redfin.com/NC/Chapel-Hill/209-Copper-Beech-Ct-27517/home/105416069,TMLS,2149258,N,Y,35.88766,-79.0537137
PAST SALE,August-7-2017,Single Family Residential,39422 Glenn Glade,Chapel Hill,NC,27517,775000,5,5.0,Governors Club,4102,43124,2010,1019,189,222,Sold,,,http://www.redfin.com/NC/Chapel-Hill/39422-Glenn-Glade-27517/home/41377404,TMLS,2058459,N,Y,35.8490057,-79.0554573
PAST SALE,May-6-2019,Single Family Residential,1125 Pinehurst Dr,Chapel Hill,NC,27517,1350000,5,4.5,Meadowmont,5935,20037,2007,382,227,40,Sold,,,http://www.redfin.com/NC/Chapel-Hill/1125-Pinehurst-Dr-27517/home/44418931,TMLS,2240491,N,Y,35.9094341,-79.0163411
PAST SALE,May-3-2019,Townhouse,304 W Barbee Chapel Rd,Chapel Hill,NC,27517,751000,4,5.0,Meadowmont,3666,3920,2003,385,205,380,Sold,,,http://www.redfin.com/NC/Chapel-Hill/304-W-Barbee-Chapel-Rd-27517/home/44407485,TMLS,2241056,N,Y,35.9072894,-79.0142878
PAST SALE,January-31-2019,Townhouse,216 Oval Park Pl,Chapel Hill,NC,27517,1049000,3,5.5,Summit Park,5506,,2004,477,191,380,Sold,,,http://www.redfin.com/NC/Chapel-Hill/216-Oval-Park-Pl-27517/home/44409010,TMLS,2221601,N,Y,35.907705,-79.012848
PAST SALE,December-16-2019,Single Family Residential,10420 Stone,Chapel Hill,NC,27517,1050000,4,5.0,Governors Club,5538,54754,2008,158,190,269,Sold,,,http://www.redfin.com/NC/Chapel-Hill/10420-Stone-27517/home/41380278,TMLS,2277521,N,Y,35.8381511,-79.060434
PAST SALE,January-6-2020,Single Family Residential,20114 Scott,Chapel Hill,NC,27517,985000,3,3.0,Governors Club,6048,119790,2002,137,163,556,Sold,,,http://www.redfin.com/NC/Chapel-Hill/20114-Scott-27517/home/41382347,TMLS,2293701,N,Y,35.844546,-79.043574
PAST SALE,January-8-2020,Townhouse,225 Meadowmont Ln Unit C - lot 7,Chapel Hill,NC,27517,750000,3,3.5,Meadowmont,2400,,2019,135,313,449,Sold,,,http://www.redfin.com/NC/Chapel-Hill/225-Meadowmont-Ln-27517/unit-C-lot-7/home/148534954,TMLS,2228829,N,Y,35.907937,-79.0088987
PAST SALE,January-7-2020,Townhouse,305 Circle Park Pl,Chapel Hill,NC,27517-8164,860000,4,5.5,Summit Park,4037,,2005,136,213,396,Sold,,,http://www.redfin.com/NC/Chapel-Hill/305-Circle-Park-Pl-27517/home/44420529,TMLS,2234974,N,Y,35.9088068,-79.0129698
PAST SALE,April-23-2019,Single Family Residential,105 Beechridge Ct,Chapel Hill,NC,27517,815000,6,5.0,Beechridge,5497,43560,2001,395,148,17,Sold,,,http://www.redfin.com/NC/Chapel-Hill/105-Beechridge-Ct-27517/home/44408387,TMLS,2239569,N,Y,35.8873774,-79.0508666
PAST SALE,April-25-2019,Single Family Residential,78004 Stokes,Chapel Hill,NC,27517,693500,3,2.5,Morehead Forest,3536,11761,2000,393,196,269,Sold,,,http://www.redfin.com/NC/Chapel-Hill/78004-Stokes-27517/home/41377819,TMLS,2233755,N,Y,35.8377662,-79.032303
PAST SALE,August-31-2018,Single Family Residential,105 Keeneland Ct,Durham,NC,27713,739000,4,3.5,Keeneland Manor,4123,43560,2012,630,179,118,Sold,,,http://www.redfin.com/NC/Durham/105-Keeneland-Ct-27713/home/43610713,TMLS,2186081,N,Y,35.8831516,-78.9712893
PAST SALE,December-12-2018,Single Family Residential,1019 Pinehurst Dr,Chapel Hill,NC,27517,800000,4,3.5,The Oaks,3991,42688,1973,527,200,,Sold,,,http://www.redfin.com/NC/Chapel-Hill/1019-Pinehurst-Dr-27517/home/44393550,TMLS,2220681,N,Y,35.9142844,-79.0135371
PAST SALE,November-30-2018,Single Family Residential,302 Faison Rd,Chapel Hill,NC,27517,970000,5,4.5,Meadowmont,4195,10454,2003,539,231,41,Sold,,,http://www.redfin.com/NC/Chapel-Hill/302-Faison-Rd-27517/home/44406666,TMLS,2217427,N,Y,35.910968,-79.0131396
PAST SALE,January-14-2019,Single Family Residential,12812 Morehead,Chapel Hill,NC,27517,840000,4,3.5,Governors Club,4592,64033,2001,494,183,269,Sold,,,http://www.redfin.com/NC/Chapel-Hill/12812-Morehead-27517/home/41380098,TMLS,2225347,N,Y,35.8420565,-79.0448631
PAST SALE,October-31-2018,Single Family Residential,119 Eagles Watch Ln,Chapel Hill,NC,27517,725000,6,6.5,Westfall,6521,33149,2015,569,111,99,Sold,,,http://www.redfin.com/NC/Chapel-Hill/119-Eagles-Watch-Ln-27517/home/41392754,TMLS,2172298,N,Y,35.8207338,-79.0537799
PAST SALE,August-31-2018,Single Family Residential,702 Meadowmont Ln,Chapel Hill,NC,27517-8157,870000,4,5.0,Meadowmont,4516,22389,2007,630,193,41,Sold,,,http://www.redfin.com/NC/Chapel-Hill/702-Meadowmont-Ln-27517/home/43601799,TMLS,2204221,N,Y,35.9135563,-79.004506
PAST SALE,December-7-2018,Townhouse,307 Circle Park Pl,Chapel Hill,NC,27517,895000,3,3.5,Summit Park,3963,3920,2005,532,226,380,Sold,,,http://www.redfin.com/NC/Chapel-Hill/307-Circle-Park-Pl-27517/home/44410042,TMLS,2213291,N,Y,35.9088863,-79.0129894
PAST SALE,December-21-2018,Single Family Residential,88 Ocoee Falls Dr,Chapel Hill,NC,27517,755000,1,1.0,Chatham,1,167270,2007,518,755000,66,Sold,,,http://www.redfin.com/NC/Chapel-Hill/88-Ocoee-Falls-Dr-27517/home/41388057,TMLS,2220848,N,Y,35.742404,-79.0592312
PAST SALE,August-13-2018,Townhouse,215 Meadowmont Ln #3,Chapel Hill,NC,27517,670000,3,3.5,Meadowmont,2400,,2017,648,279,326,Sold,,,http://www.redfin.com/NC/Chapel-Hill/215-Meadowmont-Ln-27517/unit-3/home/95969591,TMLS,2027359,N,Y,35.9076655,-79.0090875
PAST SALE,February-28-2019,Single Family Residential,304 Nottingham Dr,Chapel Hill,NC,27517,1265000,5,7.5,The Oaks,8826,57934,2007,449,143,,Sold,,,http://www.redfin.com/NC/Chapel-Hill/304-Nottingham-Dr-27517/home/43551365,TMLS,2156526,N,Y,35.926934,-79.002511
PAST SALE,March-14-2019,Single Family Residential,306 Faison Rd,Chapel Hill,NC,27517,740000,4,3.5,Meadowmont,2956,13503,2002,435,250,41,Sold,,,http://www.redfin.com/NC/Chapel-Hill/306-Faison-Rd-27517/home/44419639,TMLS,2204918,N,Y,35.9109653,-79.0126539
PAST SALE,,Single Family Residential,12083 Morehead,Chapel Hill,NC,27517,725000,4,4.0,,3438,13242,1995,,211,,,,,http://www.redfin.com/NC/Chapel-Hill/12083-Morehead-27517/home/41366339,,,N,Y,35.8391218,-79.0346871
PAST SALE,July-9-2018,Single Family Residential,200 Faison Rd,Chapel Hill,NC,27517-5660,1120000,5,5.5,Meadowmont,5444,13068,2002,683,206,41,Sold,,,http://www.redfin.com/NC/Chapel-Hill/200-Faison-Rd-27517/home/44418953,TMLS,2187817,N,Y,35.9119434,-79.0152813
PAST SALE,October-24-2018,Single Family Residential,10028 Hammock Bnd,Chapel Hill,NC,27517,696000,4,3.5,Governors Forest,4271,34325,2005,576,163,89,Sold,,,http://www.redfin.com/NC/Chapel-Hill/10028-Hammock-Bnd-27517/home/41380879,TMLS,2206218,N,Y,35.8568492,-79.0126318
PAST SALE,March-6-2019,Single Family Residential,1 Winners Cir,Durham,NC,27713,739134,4,4.5,Keeneland Manor,4212,55582,2013,443,175,118,Sold,,,http://www.redfin.com/NC/Durham/1-Winners-Cir-27713/home/43610712,TMLS,2225957,N,Y,35.882574,-78.9713979
PAST SALE,December-14-2018,Single Family Residential,908 Bayberry Dr,Chapel Hill,NC,27517-8394,880000,6,5.5,Hunts Reserve,4980,61855,1999,525,177,50,Sold,,,http://www.redfin.com/NC/Chapel-Hill/908-Bayberry-Dr-27517/home/44395611,TMLS,2219893,N,Y,35.8899168,-79.0309122
PAST SALE,February-1-2019,Townhouse,214 Oval Park Pl,Chapel Hill,NC,27517,899000,3,4.0,Summit Park,4093,3049,2004,476,220,396,Sold,,,http://www.redfin.com/NC/Chapel-Hill/214-Oval-Park-Pl-27517/home/44409506,TMLS,2230193,N,Y,35.9076682,-79.0129573
PAST SALE,July-12-2017,Single Family Residential,11512 Governors Dr,Chapel Hill,NC,27517,710000,5,3.5,Governors Club,4819,56192,1996,1045,147,222,Sold,,,http://www.redfin.com/NC/Chapel-Hill/11512-Governors-Dr-27517/home/41380340,TMLS,2042854,N,Y,35.8378884,-79.0565387
PAST SALE,June-6-2017,Single Family Residential,355 The Preserve Trl,Chapel Hill,NC,27517,725000,5,7.0,The Preserve at Jordan Lake,6464,22215,2008,1081,112,83,Sold,,,http://www.redfin.com/NC/Chapel-Hill/355-The-Preserve-Trl-27517/home/41384782,TMLS,2101106,N,Y,35.7714381,-79.0543778
PAST SALE,June-30-2017,Single Family Residential,24 Wafting Ln,Chapel Hill,NC,27517,1018500,4,5.5,Windfall,4246,166399,2017,1057,240,60,Sold,,,http://www.redfin.com/NC/Chapel-Hill/Unknown-Unknown/home/41390515,TMLS,2036481,N,Y,35.754448,-79.062595
PAST SALE,,Single Family Residential,200 Donegal Dr,Chapel Hill,NC,27517,975000,4,3.5,,3994,34630,1989,,244,,,,,http://www.redfin.com/NC/Chapel-Hill/200-Donegal-Dr-27517/home/43594871,,,N,Y,35.9219035,-79.0017899
PAST SALE,December-28-2018,Single Family Residential,90119 Hoey,Chapel Hill,NC,27517,930000,5,5.5,Governors Club,4566,33541,2018,511,204,244,Sold,,,http://www.redfin.com/NC/Chapel-Hill/90119-Hoey-27517/home/41364131,TMLS,2168106,N,Y,35.8396833,-79.0446865
PAST SALE,May-11-2018,Single Family Residential,320 Nottingham Dr,Chapel Hill,NC,27517,780000,4,3.5,The Oaks,4000,31798,1996,742,195,,Sold,,,http://www.redfin.com/NC/Chapel-Hill/320-Nottingham-Dr-27517/home/43548832,TMLS,2154112,N,Y,35.926228,-79.001159
PAST SALE,September-5-2018,Single Family Residential,111 Tweed Pl,Chapel Hill,NC,27517,675000,3,2.0,The Oaks,2000,22651,1988,625,338,7,Sold,,,http://www.redfin.com/NC/Chapel-Hill/111-Tweed-Pl-27517/home/43549356,TMLS,2207067,N,Y,35.9206068,-79.0009508
PAST SALE,April-26-2019,Single Family Residential,50201 Manly,Chapel Hill,NC,27517,680000,4,3.5,Governors Club,3852,33976,1996,392,177,244,Sold,,,http://www.redfin.com/NC/Chapel-Hill/50201-Manly-27517/home/41386029,TMLS,2229718,N,Y,35.8496773,-79.0432959
PAST SALE,April-26-2019,Single Family Residential,113 Wicklow Pl,Chapel Hill,NC,27517-6543,825000,5,5.0,The Oaks,4287,30056,1990,392,192,,Sold,,,http://www.redfin.com/NC/Chapel-Hill/113-Wicklow-Pl-27517/home/43551371,TMLS,2239357,N,Y,35.9222026,-79.0041554
PAST SALE,August-30-2018,Single Family Residential,10821 Governors Dr,Chapel Hill,NC,27517,825000,4,4.5,Governors Club,3862,10890,2002,631,214,428,Sold,,,http://www.redfin.com/NC/Chapel-Hill/10821-Governors-Dr-27517/home/41371742,TMLS,2120774,N,Y,35.8452287,-79.0427134
PAST SALE,March-22-2019,Single Family Residential,623 Westfall Way,Chapel Hill,NC,27517,776000,4,4.0,Westfall,3549,30840,2018,427,219,120,Sold,,,http://www.redfin.com/NC/Chapel-Hill/623-Westfall-Way-27517/home/41392337,TMLS,2205201,N,Y,35.8212176,-79.0556097
PAST SALE,April-30-2019,Single Family Residential,96208 Carteret,Chapel Hill,NC,27517,680000,4,4.5,Vance Knoll,4488,9713,2005,388,152,300,Sold,,,http://www.redfin.com/NC/Chapel-Hill/96208-Carteret-27517/home/41386351,TMLS,2230131,N,Y,35.8437064,-79.0399187
PAST SALE,April-22-2020,Single Family Residential,1020 Shagbark Ct Lot 21,Chapel Hill,NC,27517,782115,4,4.0,South Grove,4109,30492,2019,30,190,78,Sold,,,http://www.redfin.com/NC/Chapel-Hill/1020-Shagbark-Ct-27517/unit-21/home/167102071,TMLS,2261838,N,Y,35.8649383,-79.0731195
PAST SALE,March-11-2020,Single Family Residential,12012 Iredell,Chapel Hill,NC,27517,850000,4,4.5,Governors Club,4585,32234,2008,72,185,269,Sold,,,http://www.redfin.com/NC/Chapel-Hill/12012-Iredell-27517/home/41381283,TMLS,2295291,N,Y,35.8409675,-79.0327886
PAST SALE,April-25-2019,Single Family Residential,850 Bear Tree Crk,Chapel Hill,NC,27517,725000,5,5.5,The Preserve at Jordan Lake,6421,20473,2002,393,113,83,Sold,,,http://www.redfin.com/NC/Chapel-Hill/850-Bear-Tree-Crk-27517/home/41370278,TMLS,2240725,N,Y,35.7789179,-79.0632036
PAST SALE,,Condo/Co-op,101 Cedar Meadows Ln #48,Chapel Hill,NC,27517,715000,2,2.0,,2004,,2003,,357,,,,,http://www.redfin.com/NC/Chapel-Hill/101-Cedar-Meadows-Ln-27517/unit-48/home/43603195,,,N,Y,35.9073796,-79.0062969
PAST SALE,December-30-2019,Single Family Residential,32515 Archdale,Chapel Hill,NC,27517,825000,4,5.0,Governors Club,5268,108900,1997,144,157,269,Sold,,,http://www.redfin.com/NC/Chapel-Hill/32515-Archdale-Dr-27517/unit-42/home/41365664,TMLS,2278972,N,Y,35.841145,-79.0551042
PAST SALE,May-15-2020,Single Family Residential,233 Beech Slope Ct,Chapel Hill,NC,27517,719900,4,3.0,Westfall,3164,31929,2019,7,228,120,Sold,,,http://www.redfin.com/NC/Chapel-Hill/233-Beech-Slope-Ct-27517/home/109650136,TMLS,2279546,N,Y,35.8284824,-79.049487
PAST SALE,July-26-2018,Single Family Residential,10219 Governors Dr,Chapel Hill,NC,27517,835000,4,5.5,Governors Club,4717,35719,1990,666,177,244,Sold,,,http://www.redfin.com/NC/Chapel-Hill/10219-Governors-Dr-27517/home/41382067,TMLS,2179168,N,Y,35.8533327,-79.0356805
PAST SALE,September-18-2018,Single Family Residential,901 Lystra Ln,Chapel Hill,NC,27517,675000,5,4.0,Woodhaven,4512,135950,1994,612,150,,Sold,,,http://www.redfin.com/NC/Chapel-Hill/901-Lystra-Ln-27517/home/44391681,TMLS,2185907,N,Y,35.8737285,-79.0568477
PAST SALE,June-29-2018,Single Family Residential,1205 Old Lystra Rd,Chapel Hill,NC,27517,785000,3,2.5,Old Lystra Duke L Stone Trust,3100,73180,1966,693,253,,Sold,,,http://www.redfin.com/NC/Chapel-Hill/1205-Old-Lystra-Rd-27517/home/44390612,TMLS,2177086,N,Y,35.8749978,-79.0529758
PAST SALE,February-14-2020,Single Family Residential,53 Davis Love Dr,Chapel Hill,NC,27517,703250,9,6.5,The Preserve at Jordan Lake,6707,43560,2008,98,105,83,Sold,,,http://www.redfin.com/NC/Chapel-Hill/53-Davis-Love-Dr-27517/home/41378073,TMLS,2287750,N,Y,35.7837238,-79.0570463
PAST SALE,January-31-2020,Single Family Residential,10440 Swain,Chapel Hill,NC,27517,1028000,4,5.0,Governors Club,5130,50965,2017,112,200,269,Sold,,,http://www.redfin.com/NC/Chapel-Hill/10440-Swain-27517/home/41366849,TMLS,2251017,N,Y,35.8356376,-79.0556338
PAST SALE,September-24-2019,Single Family Residential,1028 Shagbark Ct,Chapel Hill,NC,27517,735000,4,3.5,South Grove,3877,31363,2015,241,190,78,Sold,,,http://www.redfin.com/NC/Chapel-Hill/1028-Shagbark-Ct-27517/home/52322704,TMLS,2263159,N,Y,35.8649214,-79.0722953
PAST SALE,December-18-2019,Single Family Residential,1005 Shagbark Ct Lot 2,Chapel Hill,NC,27517,792201,4,4.0,South Grove,3537,44431,2019,156,224,78,Sold,,,http://www.redfin.com/NC/Chapel-Hill/1005-Shagbark-Ct-27517/unit-2/home/148526204,TMLS,2228520,N,Y,35.8657235,-79.0743728
PAST SALE,March-17-2020,Single Family Residential,1212 Old Lystra Rd,Chapel Hill,NC,27517,961500,5,5.0,Orange,2964,177724,2005,66,324,,Sold,,,http://www.redfin.com/NC/Chapel-Hill/1212-Old-Lystra-Rd-27517/home/44390293,TMLS,2289536,N,Y,35.8742137,-79.0502552
PAST SALE,March-31-2020,Single Family Residential,2000 Shagbark Ct Lot 18,Chapel Hill,NC,27517,751764,4,4.0,South Grove,3537,43560,2019,52,213,78,Sold,,,http://www.redfin.com/NC/Chapel-Hill/2000-Shagbark-Ct-27517/unit-18/home/167088359,TMLS,2261068,N,Y,35.8644593,-79.0723305
PAST SALE,May-19-2020,Single Family Residential,116 Broad Leaf,Chapel Hill,NC,27517,776000,3,3.5,The Preserve at Jordan Lake,3400,20473,2018,3,228,83,Sold,,,http://www.redfin.com/NC/Chapel-Hill/116-Broad-Leaf-Ct-27517/home/41371828,TMLS,2173496,N,Y,35.780036,-79.051536
PAST SALE,May-21-2020,Single Family Residential,90 Swaying Trees Ct,Chapel Hill,NC,27517,1020000,5,6.5,Windfall,6746,194103,2007,1,151,66,Sold,,,http://www.redfin.com/NC/Chapel-Hill/90-Swaying-Trees-Ct-27517/home/41387141,TMLS,2305745,N,Y,35.7458035,-79.0579291
PAST SALE,February-26-2020,Single Family Residential,103 S Flanders St #36,Chapel Hill,NC,27517,655000,5,4.0,Legend Oaks,3580,55756,2020,86,183,46,Sold,,,http://www.redfin.com/NC/Chapel-Hill/103-S-Flanders-St-27517/unit-36/home/168654666,TMLS,2272775,N,Y,35.840218,-79.066358
PAST SALE,March-18-2020,Single Family Residential,10714 Governors Dr,Chapel Hill,NC,27517,954000,4,3.5,Governors Club,3775,31798,1993,65,253,278,Sold,,,http://www.redfin.com/NC/Chapel-Hill/10714-Governors-Dr-27517/home/41366386,TMLS,2308610,N,Y,35.8437304,-79.0372036
PAST SALE,March-18-2020,Single Family Residential,24203 Cherry,Chapel Hill,NC,27517,1300000,4,5.5,Governors Club,6304,70131,1997,65,206,278,Sold,,,http://www.redfin.com/NC/Chapel-Hill/24203-Cherry-Rd-27517/home/41381868,TMLS,2297162,N,Y,35.8416233,-79.0483946
PAST SALE,March-25-2020,Single Family Residential,108 Umbrio Ln,Chapel Hill,NC,27517-8336,770000,4,3.5,Orange,3693,65775,1997,58,209,58,Sold,,,http://www.redfin.com/NC/Chapel-Hill/108-Umbrio-Ln-27517/home/44392369,TMLS,2276731,N,Y,35.8880404,-79.034285
PAST SALE,March-25-2020,Single Family Residential,105 Founders Ridge Dr,Chapel Hill,NC,27517,1300000,4,5.0,Chancellors View,5246,18556,2007,58,248,70,Sold,,,http://www.redfin.com/NC/Chapel-Hill/105-Founders-Ridge-Dr-27517/home/44424350,TMLS,2305948,N,Y,35.8804764,-79.0563401
PAST SALE,March-26-2020,Townhouse,306 W Barbee Chapel Rd,Chapel Hill,NC,27517-7512,750000,3,3.0,Meadowmont,3617,3049,2002,57,207,397,Sold,,,http://www.redfin.com/NC/Chapel-Hill/306-W-Barbee-Chapel-Rd-27517/home/44420950,TMLS,2298848,N,Y,35.907259,-79.014381
PAST SALE,March-9-2020,Single Family Residential,18003 Hyde,Chapel Hill,NC,27517,880000,4,3.5,Stone Brook,5795,12196,2009,74,152,370,Sold,,,http://www.redfin.com/NC/Chapel-Hill/18003-Hyde-27517/home/41389602,TMLS,2289732,N,Y,35.843174,-79.063006
PAST SALE,March-23-2020,Single Family Residential,1407 Legend Oaks Dr #25,Chapel Hill,NC,27517,673635,4,4.5,Legend Oaks,3518,56628,2020,60,191,46,Sold,,,http://www.redfin.com/NC/Chapel-Hill/1407-Legend-Oaks-Dr-27517/unit-25/home/170937881,TMLS,2305168,N,Y,35.841458,-79.068675
PAST SALE,May-8-2020,Single Family Residential,52 Gentle Winds Dr,Chapel Hill,NC,27517,950000,4,4.5,Windfall,5226,168141,2008,14,182,66,Sold,,,http://www.redfin.com/NC/Chapel-Hill/52-Gentle-Winds-Dr-27517/home/41391847,TMLS,2213498,N,Y,35.745529,-79.0613719
PAST SALE,April-17-2020,Single Family Residential,38505 Eden,Chapel Hill,NC,27517,659000,4,3.5,Governors Club,3854,34412,1996,35,171,278,Sold,,,http://www.redfin.com/NC/Chapel-Hill/38505-Eden-27517/home/41384409,TMLS,2292784,N,Y,35.8392523,-79.0493878
PAST SALE,October-12-2018,Single Family Residential,120 Old Bridge Ln,Chapel Hill,NC,27517,787500,5,5.5,Old Bridge,5440,16552,2001,588,145,,Sold,,,http://www.redfin.com/NC/Chapel-Hill/120-Old-Bridge-Ln-27517/home/44412071,TMLS,2200124,N,Y,35.890852,-79.0557221
PAST SALE,November-28-2018,Single Family Residential,566 Sun Forest Way,Chapel Hill,NC,27517-7705,965000,3,3.5,Sun Forest,4065,400752,2003,541,237,90,Sold,,,http://www.redfin.com/NC/Chapel-Hill/566-Sun-Forest-Way-27517/home/44410086,TMLS,2213580,N,Y,35.862089,-79.068245
PAST SALE,March-29-2018,Single Family Residential,921 Mt Carmel Church Rd,Chapel Hill,NC,27517,850000,4,3.5,Orange,4367,130680,2006,785,195,,Sold,,,http://www.redfin.com/NC/Chapel-Hill/921-Mt-Carmel-Church-Rd-27517/home/44414270,TMLS,2167963,N,Y,35.8780394,-79.0481297
PAST SALE,May-22-2018,Single Family Residential,420 Bayberry Dr,Chapel Hill,NC,27517,650000,5,4.5,Beechridge,5078,49658,2000,731,128,17,Sold,,,http://www.redfin.com/NC/Chapel-Hill/420-Bayberry-Dr-27517/home/44391774,TMLS,2119465,N,Y,35.8871176,-79.0487257
PAST SALE,May-25-2018,Single Family Residential,101 Alder Pl,Chapel Hill,NC,27517-6501,1140000,5,5.0,The Oaks,4589,30492,1986,728,248,,Sold,,,http://www.redfin.com/NC/Chapel-Hill/101-Alder-Pl-27517/home/44394976,TMLS,2185063,N,Y,35.9286406,-79.0060448
PAST SALE,August-16-2018,Single Family Residential,103 Botanical Way,Chapel Hill,NC,27517,1239000,4,4.0,Creekside,5255,34978,2008,645,236,67,Sold,,,http://www.redfin.com/NC/Chapel-Hill/103-Botanical-Way-27517/home/44515023,TMLS,2179653,N,Y,35.8927143,-79.0478734
PAST SALE,July-12-2018,Single Family Residential,22 Kendall Dr,Chapel Hill,NC,27517,1369600,5,5.0,The Oaks,4397,43995,1978,680,311,4,Sold,,,http://www.redfin.com/NC/Chapel-Hill/22-Kendall-Dr-27517/home/44393707,TMLS,2189066,N,Y,35.9160236,-79.0196309
PAST SALE,July-27-2018,Townhouse,312 Circle Park Pl,Chapel Hill,NC,27517,1095000,3,4.5,Summit Park,5859,7405,2005,665,187,383,Sold,,,http://www.redfin.com/NC/Chapel-Hill/312-Circle-Park-Pl-27517/home/44422838,TMLS,2199692,N,Y,35.9088409,-79.0119566
PAST SALE,August-30-2018,Single Family Residential,824 Pinehurst Dr,Chapel Hill,NC,27517,894000,5,4.5,The Oaks,3821,66211,1988,631,234,,Sold,,,http://www.redfin.com/NC/Chapel-Hill/824-Pinehurst-Dr-27517/home/44413733,TMLS,2185348,N,Y,35.9282444,-79.01035
PAST SALE,April-25-2018,Single Family Residential,408 Nottingham Dr,Chapel Hill,NC,27517,790000,3,3.5,The Oaks,3395,27007,1992,758,233,,Sold,,,http://www.redfin.com/NC/Chapel-Hill/408-Nottingham-Dr-27517/home/43548841,TMLS,2176327,N,Y,35.923251,-79.000824
PAST SALE,March-21-2019,Single Family Residential,502 Meadowmont Ln,Chapel Hill,NC,27517,685500,5,4.5,Meadowmont,5522,22738,2005,428,124,41,Sold,,,http://www.redfin.com/NC/Chapel-Hill/502-Meadowmont-Ln-27517/home/43596476,TMLS,2230817,N,Y,35.9118828,-79.007699
PAST SALE,August-16-2019,Single Family Residential,102 Driskel Ct,Chapel Hill,NC,27517,860000,4,3.5,Meadowmont,3553,14810,2001,280,242,41,Sold,,,http://www.redfin.com/NC/Chapel-Hill/102-Driskel-Ct-27517/home/44418470,TMLS,2259698,N,Y,35.9117643,-79.0140228
PAST SALE,August-30-2019,Single Family Residential,30 Leatherwood Ln,Chapel Hill,NC,27517,820953,3,3.5,Westfall,3258,40118,2019,266,252,120,Sold,,,http://www.redfin.com/NC/Chapel-Hill/30-Leatherwood-Ln-27517/home/41392308,TMLS,2234180,N,Y,35.8230656,-79.0546511
PAST SALE,September-3-2019,Single Family Residential,4 Kendall Dr,Chapel Hill,NC,27517,950000,3,4.0,The Oaks,3255,40510,1983,262,292,,Sold,,,http://www.redfin.com/NC/Chapel-Hill/4-Kendall-Dr-27517/home/44415069,TMLS,2268409,N,Y,35.9192991,-79.0195867
PAST SALE,September-16-2019,Single Family Residential,209 The Preserve Trl,Chapel Hill,NC,27517,739000,4,3.5,The Preserve at Jordan Lake,4822,25264,2007,249,153,83,Sold,,,http://www.redfin.com/NC/Chapel-Hill/209-The-Preserve-Trl-27517/home/41374123,TMLS,2252347,N,Y,35.7689612,-79.053162
PAST SALE,September-19-2019,Single Family Residential,95101 Vance Knl,Chapel Hill,NC,27517,670000,5,5.0,Vance Knoll,3870,11674,2007,246,173,300,Sold,,,http://www.redfin.com/NC/Chapel-Hill/95101-Vance-Knls-27517/home/41370461,TMLS,2253789,N,Y,35.8423746,-79.0398525
PAST SALE,October-17-2019,Single Family Residential,12816 Morehead,Chapel Hill,NC,27517,674350,5,5.5,Governors Club,9165,50965,1999,218,74,269,Sold,,,http://www.redfin.com/NC/Chapel-Hill/12816-Morehead-27517/home/41372018,TMLS,2267329,N,Y,35.8431944,-79.0444216
PAST SALE,December-12-2019,Single Family Residential,2005 Shagbark Ct Lot 13,Chapel Hill,NC,27517,815487,4,4.0,South Grove,3537,27007,2019,162,231,78,Sold,,,http://www.redfin.com/NC/Chapel-Hill/2005-Shagbark-Ct-27517/unit-13/home/148560269,TMLS,2229262,N,Y,35.8647334,-79.0711316
PAST SALE,,Single Family Residential,10214 Governors Dr,Chapel Hill,NC,27517,700000,3,3.0,,2630,47045,1991,,266,,,,,http://www.redfin.com/NC/Chapel-Hill/10214-Governors-Dr-27517/home/41376939,,,N,Y,35.8544392,-79.0351286
PAST SALE,May-7-2020,Single Family Residential,12930 Morehead,Chapel Hill,NC,27517,1065000,5,6.5,Governors Club,6546,27007,2002,15,163,278,Sold,,,http://www.redfin.com/NC/Chapel-Hill/12930-Morehead-27517/home/41373279,TMLS,2304591,N,Y,35.8461008,-79.0485712
PAST SALE,September-28-2018,Single Family Residential,101 Iron Mountain Rd,Chapel Hill,NC,27517-8185,723000,6,4.5,Meadowmont,5007,27878,2012,602,144,41,Sold,,,http://www.redfin.com/NC/Chapel-Hill/101-Iron-Mountain-Rd-27517/home/43598611,TMLS,2185869,N,Y,35.9132602,-79.0022095
PAST SALE,May-10-2018,Single Family Residential,1008 Pinehurst Dr,Chapel Hill,NC,27517,1250000,6,4.5,The Oaks,4910,26571,1989,743,255,100,Sold,,,http://www.redfin.com/NC/Chapel-Hill/1008-Pinehurst-Dr-27517/home/44415764,TMLS,2177013,N,Y,35.918996,-79.0112849
PAST SALE,August-2-2018,Single Family Residential,207 Falkner Dr,Chapel Hill,NC,27517,870000,5,4.0,Meadowmont,3771,10890,2003,659,231,41,Sold,,,http://www.redfin.com/NC/Chapel-Hill/207-Falkner-Dr-27517/home/44420154,TMLS,2196324,N,Y,35.9120693,-79.011859
PAST SALE,August-3-2018,Single Family Residential,1031 Pinehurst Dr,Chapel Hill,NC,27517,900000,4,4.5,Meadowmont,4194,20473,2002,658,215,41,Sold,,,http://www.redfin.com/NC/Chapel-Hill/1031-Pinehurst-Dr-27517/home/44407659,TMLS,2197714,N,Y,35.9125211,-79.0133383
PAST SALE,October-1-2018,Townhouse,212 W Barbee Chapel Rd,Chapel Hill,NC,27517,769900,4,4.0,Meadowmont,3970,4356,2002,599,194,380,Sold,,,http://www.redfin.com/NC/Chapel-Hill/212-W-Barbee-Chapel-Rd-27517/home/44408998,TMLS,2184677,N,Y,35.9067295,-79.0135846
PAST SALE,November-17-2017,Single Family Residential,111 Faison Rd,Chapel Hill,NC,27517,900000,5,4.5,Meadowmont,5330,11761,2002,917,169,41,Sold,,,http://www.redfin.com/NC/Chapel-Hill/111-Faison-Rd-27517/home/44419507,TMLS,2123393,N,Y,35.9129814,-79.0154546
PAST SALE,April-2-2018,Single Family Residential,102 Quarry Pl,Chapel Hill,NC,27517,725000,4,4.5,Hunts Reserve,4343,100188,1997,781,167,50,Sold,,,http://www.redfin.com/NC/Chapel-Hill/102-Quarry-Pl-27517/home/44416473,TMLS,2171606,N,Y,35.8892914,-79.0301727
PAST SALE,March-15-2018,Condo/Co-op,213 Meadowmont Ln Unit 2 Building 1,Chapel Hill,NC,27517,670000,3,3.5,Meadowmont,2395,,2017,799,280,367,Sold,,,http://www.redfin.com/NC/Chapel-Hill/213-Meadowmont-Ln-27517/home/143578870,TMLS,2149047,N,Y,35.9076339,-79.0091199
PAST SALE,February-1-2018,Single Family Residential,10401 Manly,Chapel Hill,NC,27517,1288000,5,5.5,Governors Club,7729,35283,1998,841,167,222,Sold,,,http://www.redfin.com/NC/Chapel-Hill/10401-Manly-27517/home/41365987,TMLS,2097053,N,Y,35.8490448,-79.0467171
PAST SALE,February-1-2018,Single Family Residential,11482 Club Dr,Chapel Hill,NC,27517,657500,4,4.0,Club Villas,4269,12632,2009,841,154,401,Sold,,,http://www.redfin.com/NC/Chapel-Hill/11482-Club-Dr-27517/home/44556807,TMLS,2136891,N,Y,35.845402,-79.040487
PAST SALE,August-14-2018,Single Family Residential,12702 Morehead,Chapel Hill,NC,27517,780500,3,4.5,Governors Club,6320,41382,1993,647,123,222,Sold,,,http://www.redfin.com/NC/Chapel-Hill/12702-Morehead-27517/home/41371508,TMLS,2149186,N,Y,35.8385179,-79.045746
PAST SALE,February-12-2019,Townhouse,303 Circle Park Pl,Chapel Hill,NC,27517,870000,3,3.5,Summit Park,3716,4356,2005,465,234,380,Sold,,,http://www.redfin.com/NC/Chapel-Hill/303-Circle-Park-Pl-27517/home/44420531,TMLS,2230001,N,Y,35.9088327,-79.0129072
PAST SALE,July-31-2018,Single Family Residential,314 Parkridge Ave,Chapel Hill,NC,27517,1160000,6,4.5,Meadowmont,5766,10890,2005,661,201,41,Sold,,,http://www.redfin.com/NC/Chapel-Hill/314-Parkridge-Ave-27517/home/44408641,TMLS,2185068,N,Y,35.9129576,-79.0107771
PAST SALE,April-19-2018,Single Family Residential,47902 Kitchin,Chapel Hill,NC,27517,785000,4,3.5,Governors Club,5152,29185,1995,764,152,244,Sold,,,http://www.redfin.com/NC/Chapel-Hill/47902-Kitchin-27517/home/41378451,TMLS,2172242,N,Y,35.8512817,-79.0542446
PAST SALE,December-12-2018,Single Family Residential,188 Bush Creek Ln,Chapel Hill,NC,27517,650000,3,2.0,Chatham,3520,476110,2006,527,185,,Sold,,,http://www.redfin.com/NC/Chapel-Hill/188-Bush-Creek-Ln-27517/home/41375569,TMLS,2206539,N,Y,35.796261,-79.031667
PAST SALE,December-4-2018,Single Family Residential,222 Brown Bear,Chapel Hill,NC,27517,671650,4,3.5,The Preserve at Jordan Lake,3681,21780,2016,535,182,83,Sold,,,http://www.redfin.com/NC/Chapel-Hill/222-Brown-Bear-27517/home/41383685,TMLS,2212737,N,Y,35.7694841,-79.0597829
PAST SALE,December-20-2018,Single Family Residential,82108 Ehringhaus,Chapel Hill,NC,27517,650000,4,3.5,Morehead Forest,5007,11674,2001,519,130,244,Sold,,,http://www.redfin.com/NC/Chapel-Hill/82108-Ehringhaus-27517/home/41385509,TMLS,2209436,N,Y,35.8363226,-79.0335392
PAST SALE,June-15-2018,Single Family Residential,824 Bear Tree Crk,Chapel Hill,NC,27517,697000,3,2.5,The Preserve at Jordan Lake,3259,17424,2017,707,214,83,Sold,,,http://www.redfin.com/NC/Chapel-Hill/824-Bear-Tree-Crk-27517/home/41386505,TMLS,2113651,N,Y,35.778504,-79.062365
PAST SALE,November-26-2018,Single Family Residential,108 Tweed Pl,Chapel Hill,NC,27517,715000,3,3.0,The Oaks,2984,15246,2009,543,240,,Sold,,,http://www.redfin.com/NC/Chapel-Hill/108-Tweed-Pl-27517/home/43551405,TMLS,2215708,N,Y,35.9200486,-79.0002237
PAST SALE,August-15-2019,Single Family Residential,8 Midstream Ct,Chapel Hill,NC,27517,705000,4,3.5,Blenheim Woods,3705,10890,2009,281,190,44,Sold,,,http://www.redfin.com/NC/Chapel-Hill/8-Midstream-Ct-27517/home/43608456,TMLS,2258031,N,Y,35.926286,-78.999005
PAST SALE,August-26-2019,Single Family Residential,102 Parkridge Ave,Chapel Hill,NC,27517,759000,5,3.5,Meadowmont,3817,10890,2004,270,199,41,Sold,,,http://www.redfin.com/NC/Chapel-Hill/102-Parkridge-Ave-27517/home/44408688,TMLS,2266530,N,Y,35.9099451,-79.0107108
PAST SALE,September-9-2019,Single Family Residential,7001 Knotty Pine Dr,Chapel Hill,NC,27517,665000,5,4.0,Falconbridge,4676,60984,2002,256,142,,Sold,,,http://www.redfin.com/NC/Chapel-Hill/7001-Knotty-Pine-Dr-27517/home/43604296,TMLS,2251376,N,Y,35.897799,-78.9848292
PAST SALE,,Condo/Co-op,448 Cedar Club Cir #408,Chapel Hill,NC,27517,650000,2,2.0,,2119,,2003,,307,,,,,http://www.redfin.com/NC/Chapel-Hill/448-Cedar-Club-Cir-27517/unit-408/home/43601394,,,N,Y,35.9061344,-79.0072304
PAST SALE,,Single Family Residential,104 Springdale Way,Chapel Hill,NC,27517,725000,4,4.5,,4386,10759,2005,,165,,,,,http://www.redfin.com/NC/Chapel-Hill/104-Springdale-Way-27517/home/43603046,,,N,Y,35.9150604,-79.0041748
PAST SALE,May-30-2019,Single Family Residential,117 Faison Rd,Chapel Hill,NC,27517-5660,1135000,5,4.5,Meadowmont,5537,10890,2003,358,205,48,Sold,,,http://www.redfin.com/NC/Chapel-Hill/117-Faison-Rd-27517/home/44417985,TMLS,2246656,N,Y,35.9133276,-79.0151546
PAST SALE,July-30-2019,Single Family Residential,1032 Pinehurst Dr,Chapel Hill,NC,27517,810000,4,3.5,Meadowmont,3656,10977,2002,297,222,41,Sold,,,http://www.redfin.com/NC/Chapel-Hill/1032-Pinehurst-Dr-27517/home/44418505,TMLS,2249639,N,Y,35.9133825,-79.0142436
PAST SALE,August-1-2019,Single Family Residential,53 Hidden Oaks Dr,Chapel Hill,NC,27517,760000,4,6.0,Hidden Oaks,4283,125017,2005,295,177,,Sold,,,http://www.redfin.com/NC/Chapel-Hill/53-Hidden-Oaks-Dr-27517/home/41371340,TMLS,2251696,N,Y,35.8284696,-79.0858209
PAST SALE,August-30-2019,Single Family Residential,720 The Preserve Trl,Chapel Hill,NC,27517,725000,4,4.5,The Preserve at Jordan Lake,4800,30492,2016,266,151,83,Sold,,,http://www.redfin.com/NC/Chapel-Hill/720-The-Preserve-Trl-27517/home/41375666,TMLS,2251144,N,Y,35.7773294,-79.0571346
PAST SALE,October-3-2019,Single Family Residential,1009 Shagbark Ct Lot 3,Chapel Hill,NC,27517,734971,4,4.0,South Grove,3563,56628,2019,232,206,78,Sold,,,http://www.redfin.com/NC/Chapel-Hill/1009-Shagbark-Ct-27517/unit-3/home/148526187,TMLS,2228516,N,Y,35.8660621,-79.0741864
PAST SALE,September-30-2019,Single Family Residential,418 Davis Love Dr,Chapel Hill,NC,27517,725000,4,3.5,The Preserve at Jordan Lake,3752,19166,2016,235,193,83,Sold,,,http://www.redfin.com/NC/Chapel-Hill/418-Davis-Love-Dr-27517/home/41378951,TMLS,2258758,N,Y,35.7884294,-79.0562297
PAST SALE,June-28-2019,Single Family Residential,107 Founders Ridge Dr,Chapel Hill,NC,27517,1250000,5,5.0,Chancellors View,4600,20037,2016,329,272,70,Sold,,,http://www.redfin.com/NC/Chapel-Hill/107-Founders-Ridge-Dr-27517/home/44521645,TMLS,2230938,N,Y,35.8806677,-79.0563621
PAST SALE,June-20-2019,Single Family Residential,310 Azalea Dr,Chapel Hill,NC,27517-9206,725000,3,2.5,Morgan Creek,3503,40510,2001,337,207,,Sold,,,http://www.redfin.com/NC/Chapel-Hill/310-Azalea-Dr-27517/home/44391146,TMLS,2248280,N,Y,35.8877274,-79.0549055
PAST SALE,June-14-2019,Single Family Residential,101 N Park Bluff Dr,Chapel Hill,NC,27517-8166,744500,4,4.5,Meadowmont,3445,11630,2012,343,216,41,Sold,,,http://www.redfin.com/NC/Chapel-Hill/101-Park-Bluff-Dr-27517/home/43601720,TMLS,2250811,N,Y,35.9144529,-79.0048814
PAST SALE,May-6-2019,Single Family Residential,102 Gurnsey Trl,Chapel Hill,NC,27517,785000,5,5.0,Meadowmont,3225,10018,2001,382,243,42,Sold,,,http://www.redfin.com/NC/Chapel-Hill/102-Gurnsey-Trl-27517/home/44418423,TMLS,2231888,N,Y,35.9080803,-79.0155684
PAST SALE,July-25-2019,Single Family Residential,1040 Pinehurst Dr,Chapel Hill,NC,27517,803000,4,3.5,Meadowmont,3348,11325,2002,302,240,41,Sold,,,http://www.redfin.com/NC/Chapel-Hill/1040-Pinehurst-Dr-27517/home/44409029,TMLS,2263838,N,Y,35.9129389,-79.0142215
PAST SALE,,Condo/Co-op,233 Cedar Breeze Ln #303,Chapel Hill,NC,27517,689500,2,2.0,,2029,,2003,,340,,,,,http://www.redfin.com/NC/Chapel-Hill/233-Cedar-Breeze-Ln-27517/unit-303/home/43596767,,,N,Y,35.9073796,-79.0062969
PAST SALE,,Condo/Co-op,518 Cedar Club Cir #108,Chapel Hill,NC,27517,653000,2,2.0,,2119,,2005,,308,,,,,http://www.redfin.com/NC/Chapel-Hill/518-Cedar-Club-Cir-27517/unit-108/home/43599244,,,N,Y,35.90642,-79.0073186
PAST SALE,,Single Family Residential,113 Little Branch Trl,Chapel Hill,NC,27517,668000,4,2.5,,2965,7841,2003,,225,,,,,http://www.redfin.com/NC/Chapel-Hill/113-Little-Branch-Trl-27517/home/44418630,,,N,Y,35.9101769,-79.0098055
PAST SALE,October-4-2019,Single Family Residential,50123 Manly,Chapel Hill,NC,27517,920000,5,6.0,Governors Club,7335,43995,1995,231,125,269,Sold,,,http://www.redfin.com/NC/Chapel-Hill/50123-Manly-27517/home/41370335,TMLS,2243400,N,Y,35.8510001,-79.0416625
PAST SALE,January-31-2020,Single Family Residential,1009 Mocker Nut Ln Lot 9,Chapel Hill,NC,27517,664950,4,4.0,South Grove,3509,36590,2019,112,189,78,Sold,,,http://www.redfin.com/NC/Chapel-Hill/1009-Mocker-Nut-Ln-27517/unit-9/home/148526212,TMLS,2248248,N,Y,35.8661097,-79.0717597
PAST SALE,January-31-2020,Single Family Residential,41001 Carr,Chapel Hill,NC,27517,1165000,5,6.5,Governors Club,8362,33541,2001,112,139,269,Sold,,,http://www.redfin.com/NC/Chapel-Hill/41001-Carr-27517/home/41384818,TMLS,2280894,N,Y,35.8451831,-79.0598933
PAST SALE,March-31-2020,Single Family Residential,364 Bear Tree Crk,Chapel Hill,NC,27517,737000,6,5.0,The Preserve at Jordan Lake,4652,17859,2015,52,158,83,Sold,,,http://www.redfin.com/NC/Chapel-Hill/364-Bear-Tree-Crk-27517/home/41384503,TMLS,2275056,N,Y,35.7721055,-79.0578187
PAST SALE,April-24-2020,Single Family Residential,811 The Preserve Trl,Chapel Hill,NC,27517,664000,4,3.5,The Preserve at Jordan Lake,4393,20473,2010,28,151,83,Sold,,,http://www.redfin.com/NC/Chapel-Hill/811-The-Preserve-Trl-27517/home/44556668,TMLS,2301045,N,Y,35.7790758,-79.0587236
PAST SALE,October-15-2019,Single Family Residential,124 Donegal Dr,Chapel Hill,NC,27517-6559,775000,4,4.0,The Oaks,3066,36590,1988,220,253,8,Sold,,,http://www.redfin.com/NC/Chapel-Hill/124-Donegal-Dr-27517/home/43548885,TMLS,2265005,N,Y,35.9210779,-79.0030928
PAST SALE,,Condo/Co-op,338 Cedar Club Cir #308,Chapel Hill,NC,27517,776000,2,2.0,,2119,,2005,,366,,,,,http://www.redfin.com/NC/Chapel-Hill/338-Cedar-Club-Cir-27517/unit-308/home/43606097,,,N,Y,35.906302,-79.0065381
PAST SALE,,Condo/Co-op,217 Cedar Berry Ln #11,Chapel Hill,NC,27517,773500,2,2.0,,2591,,2004,,299,,,,,http://www.redfin.com/NC/Chapel-Hill/217-Cedar-Berry-Ln-27517/unit-11/home/43596220,,,N,Y,35.9073796,-79.0062969
PAST SALE,January-24-2020,Single Family Residential,992 Cleland Dr,Chapel Hill,NC,27517-5622,1000000,5,4.5,The Oaks,4077,28749,1980,119,245,,Sold,,,http://www.redfin.com/NC/Chapel-Hill/992-Cleland-Dr-27517/home/44413183,TMLS,2269736,N,Y,35.918884,-79.0178204
PAST SALE,January-6-2020,Single Family Residential,22023 Turner,Chapel Hill,NC,27517,790000,4,5.5,Stone Brook,6939,26571,2000,137,114,458,Sold,,,http://www.redfin.com/NC/Chapel-Hill/22023-Turner-27517/home/41378134,TMLS,2275826,N,Y,35.8398523,-79.0620008
PAST SALE,January-16-2020,Single Family Residential,213 Lancaster Dr,Chapel Hill,NC,27517-3430,1200000,5,4.5,The Oaks,5342,32190,1994,127,225,8,Sold,,,http://www.redfin.com/NC/Chapel-Hill/213-Lancaster-Dr-27517/home/43549363,TMLS,2277435,N,Y,35.9198292,-79.0052789
PAST SALE,May-18-2020,Single Family Residential,120 Donegal Dr,Chapel Hill,NC,27517-6559,1000000,3,4.0,The Oaks,4363,40075,1988,4,229,,Sold,,,http://www.redfin.com/NC/Chapel-Hill/120-Donegal-Dr-27517/home/43550888,TMLS,2303824,N,Y,35.9208138,-79.0035123
PAST SALE,May-29-2019,Single Family Residential,105 Silers Fen Ct,Chapel Hill,NC,27517,712000,5,3.5,Hunts Reserve,3054,71002,1998,359,233,50,Sold,,,http://www.redfin.com/NC/Chapel-Hill/105-Siler-s-Fen-Ct-27517/home/44396471,TMLS,2244874,N,Y,35.8917082,-79.0277553
PAST SALE,March-13-2020,Single Family Residential,100 Silers Fen Ct,Chapel Hill,NC,27517,750000,5,6.0,Hunts Reserve,5391,73180,1998,70,139,46,Sold,,,http://www.redfin.com/NC/Chapel-Hill/100-Siler-s-Fen-Ct-27517/home/44396470,TMLS,2272922,N,Y,35.8909295,-79.0272917
PAST SALE,,Single Family Residential,120 Sheffield Cir,Chapel Hill,NC,27517,1290000,5,5.5,,5317,22216,1987,,243,,,,,http://www.redfin.com/NC/Chapel-Hill/120-Sheffield-Cir-27517/home/44396466,,,N,Y,35.9274945,-79.0063388
PAST SALE,June-14-2019,Single Family Residential,916 Pinehurst Dr,Chapel Hill,NC,27517,1000000,5,4.5,The Oaks,4038,40946,1987,343,248,,Sold,,,http://www.redfin.com/NC/Chapel-Hill/916-Pinehurst-Dr-27517/home/44415598,TMLS,2254901,N,Y,35.9214128,-79.0115057
PAST SALE,April-17-2019,Single Family Residential,105 Lynwood Pl,Chapel Hill,NC,27517,900000,4,4.5,The Oaks,3895,37897,1987,401,231,,Sold,,,http://www.redfin.com/NC/Chapel-Hill/105-Lynwood-Pl-27517/home/44396312,TMLS,2238637,N,Y,35.9309319,-79.0097445
PAST SALE,June-12-2019,Single Family Residential,100 Treetop Pl,Chapel Hill,NC,27514,742000,4,2.5,The Oaks,3411,43124,1985,345,218,,Sold,,,http://www.redfin.com/NC/Chapel-Hill/100-Treetop-Pl-27517/home/44413714,TMLS,2252465,N,Y,35.9203277,-79.010225
PAST SALE,October-2-2019,Single Family Residential,503 Meadowmont Ln,Chapel Hill,NC,27517,1300000,6,5.5,Meadowmont,5744,17424,2004,233,226,41,Sold,,,http://www.redfin.com/NC/Chapel-Hill/503-Meadowmont-Ln-27517/home/44422804,TMLS,2270234,N,Y,35.9121259,-79.0083703
PAST SALE,May-15-2020,Single Family Residential,190 Lystra Ridge Rd,Chapel Hill,NC,27517,700000,5,4.5,Westfall,4761,29620,2016,7,147,90,Sold,,,http://www.redfin.com/NC/Chapel-Hill/190-Lystra-Ridge-Rd-27517/home/103487270,TMLS,2285766,N,Y,35.8226694,-79.0587018
PAST SALE,April-26-2019,Single Family Residential,97529 Franklin Rdg,Chapel Hill,NC,27517,850000,4,4.5,Governors Club,5045,40946,2000,392,168,269,Sold,,,http://www.redfin.com/NC/Chapel-Hill/97529-Franklin-Rdg-27517/home/41375903,TMLS,2038363,N,Y,35.8480259,-79.0550769
PAST SALE,May-24-2019,Single Family Residential,10427 Morehead,Chapel Hill,NC,27517,710000,5,4.5,Governors Club,5674,72483,1997,364,125,269,Sold,,,http://www.redfin.com/NC/Chapel-Hill/10427-Morehead-27517/home/41374754,TMLS,2239518,N,Y,35.8395946,-79.0602243
PAST SALE,May-1-2019,Single Family Residential,505 Sun Forest Way,Chapel Hill,NC,27517,876000,4,4.0,Sun Forest,4443,209523,2004,387,197,90,Sold,,,http://www.redfin.com/NC/Chapel-Hill/505-Sun-Forest-Way-27517/home/41379267,TMLS,2239306,N,Y,35.8600756,-79.0740605
PAST SALE,January-31-2020,Single Family Residential,71001 Wilkinson,Chapel Hill,NC,27517,740000,5,5.5,Wilkinson Park,4542,23958,2002,112,163,269,Sold,,,http://www.redfin.com/NC/Chapel-Hill/71001-Wilkinson-27517/home/41374765,TMLS,2285654,N,Y,35.8356712,-79.0443112
PAST SALE,March-12-2020,Single Family Residential,55216 Broughton,Chapel Hill,NC,27517,850000,4,4.5,Governors Club,6177,34412,1997,71,138,278,Sold,,,http://www.redfin.com/NC/Chapel-Hill/55216-Broughton-27517/home/41379614,TMLS,2094510,N,Y,35.8489809,-79.0432738
PAST SALE,March-18-2020,Single Family Residential,26308 Daniel Dr,Chapel Hill,NC,27517,712500,4,3.5,Walker Falls,4021,15246,1996,65,177,278,Sold,,,http://www.redfin.com/NC/Chapel-Hill/26308-Daniel-27517/home/41375757,TMLS,2263462,N,Y,35.8398761,-79.0359899
PAST SALE,April-7-2020,Single Family Residential,39502 Glenn Glade,Chapel Hill,NC,27517,650000,4,4.0,Governors Club,3750,42253,2004,45,173,278,Sold,,,http://www.redfin.com/NC/Chapel-Hill/39502-Glenn-Glade-27517/home/41369762,TMLS,2293546,N,Y,35.8493869,-79.054753
PAST SALE,April-15-2020,Single Family Residential,77014 Miller,Chapel Hill,NC,27517,890000,5,5.5,Wilkinson Park,6062,21780,2003,37,147,278,Sold,,,http://www.redfin.com/NC/Chapel-Hill/77014-Miller-27517/home/41370251,TMLS,2299310,N,Y,35.8330278,-79.0437153
PAST SALE,November-5-2019,Single Family Residential,284 Highview Dr,Chapel Hill,NC,27517,655000,4,4.0,Orange,3963,135036,1977,199,165,,Sold,,,http://www.redfin.com/NC/Chapel-Hill/284-Highview-Dr-27517/home/44394478,TMLS,2256815,N,Y,35.9392994,-79.0044398
PAST SALE,,Single Family Residential,125 Donegal Dr,Chapel Hill,NC,27517,1224500,3,5.0,,4522,28619,1991,,271,,,,,http://www.redfin.com/NC/Chapel-Hill/125-Donegal-Dr-27517/home/43594347,,,N,Y,35.9218022,-79.003424
PAST SALE,March-6-2020,Single Family Residential,97604 Franklin Rdg,Chapel Hill,NC,27517,1100000,4,6.0,Governors Club,5955,31798,2008,77,185,269,Sold,,,http://www.redfin.com/NC/Chapel-Hill/97604-Franklin-Rdg-27517/home/41370642,TMLS,2291835,N,Y,35.8478093,-79.0534268
PAST SALE,April-30-2020,Single Family Residential,100 St Andrews Pl,Chapel Hill,NC,27517,825000,4,3.5,The Oaks,3795,35893,1994,22,217,,Sold,,,http://www.redfin.com/NC/Chapel-Hill/100-St-Andrews-Pl-27517/home/43551358,TMLS,2306433,N,Y,35.9280307,-79.0025849
PAST SALE,,Single Family Residential,7 Coggins Mine Ct,Chapel Hill,NC,27517,652500,3,3.5,,2978,16509,2012,,219,,,,,http://www.redfin.com/NC/Chapel-Hill/7-Coggins-Mine-Ct-27517/home/43611512,,,N,Y,35.9265713,-78.9961146
PAST SALE,June-2-2017,Single Family Residential,1164 Old Lystra Rd,Chapel Hill,NC,27517,1250000,5,3.5,Chatham,4884,435600,1890,1085,256,,Sold,,,http://www.redfin.com/NC/Chapel-Hill/1164-Old-Lystra-Rd-27517/home/41381163,TMLS,2101479,N,Y,35.8525528,-79.0687756
PAST SALE,May-26-2017,Single Family Residential,1220 Windy Ridge Rd,Chapel Hill,NC,27517,780000,4,4.5,Big Woods Hills,3431,474281,1990,1092,227,,Sold,,,http://www.redfin.com/NC/Chapel-Hill/1220-Windy-Ridge-Rd-27517/home/41386808,TMLS,2114547,N,Y,35.7874049,-79.0413976
PAST SALE,July-10-2019,Single Family Residential,13026 Morehead,Chapel Hill,NC,27517,750000,4,4.5,Governors Club,3659,32670,1997,317,205,269,Sold,,,http://www.redfin.com/NC/Chapel-Hill/13026-Morehead-27517/home/41379631,TMLS,2233770,N,Y,35.8469006,-79.0510929
PAST SALE,January-31-2020,Single Family Residential,10352 Stephens,Chapel Hill,NC,27517,675000,4,3.5,Saddle Ridge,4200,17031,2019,112,161,269,Sold,,,http://www.redfin.com/NC/Chapel-Hill/10352-Stephens-27517/home/41374862,TMLS,2284811,N,Y,35.8525818,-79.0467997
PAST SALE,March-5-2020,Single Family Residential,97521 Franklin Rdg,Chapel Hill,NC,27517,755000,5,4.5,Governors Club,4834,33976,2004,78,156,269,Sold,,,http://www.redfin.com/NC/Chapel-Hill/97521-Franklin-Rdg-27517/home/41384023,TMLS,2291543,N,Y,35.8475312,-79.0558987
PAST SALE,March-9-2020,Single Family Residential,55215 Broughton,Chapel Hill,NC,27517,917500,4,5.5,Governors Club,6794,37897,1995,74,135,269,Sold,,,http://www.redfin.com/NC/Chapel-Hill/55215-Broughton-27517/home/41383376,TMLS,2281979,N,Y,35.8490194,-79.0418612
PAST SALE,April-17-2020,Single Family Residential,200 Rhododendron Dr,Chapel Hill,NC,27517,735000,5,4.0,Orange,4214,47044,1995,35,174,58,Sold,,,http://www.redfin.com/NC/Chapel-Hill/200-Rhododendron-Dr-27517/home/44390422,TMLS,2302325,N,Y,35.8865711,-79.0369497
PAST SALE,August-18-2017,Single Family Residential,201 Bolinas Ct,Chapel Hill,NC,27517,996086,6,4.5,Orange,5540,47480,1995,1008,180,50,Sold,,,http://www.redfin.com/NC/Chapel-Hill/201-Bolinas-Ct-27517/home/44390410,TMLS,2109707,N,Y,35.8848862,-79.0350955
PAST SALE,July-13-2018,Single Family Residential,1005 Pinehurst Dr,Chapel Hill,NC,27517,820000,3,2.5,The Oaks,2688,20473,1986,679,305,8,Sold,,,http://www.redfin.com/NC/Chapel-Hill/1005-Pinehurst-Dr-27517/home/44395754,TMLS,2192806,N,Y,35.919217,-79.01049
PAST SALE,March-29-2019,Single Family Residential,12708 Morehead,Chapel Hill,NC,27517,651000,4,5.0,Governors Club,5293,38768,1992,420,123,269,Sold,,,http://www.redfin.com/NC/Chapel-Hill/12708-Morehead-27517/home/41378815,TMLS,2210673,N,Y,35.8399835,-79.0464914
PAST SALE,January-31-2019,Townhouse,325 Circle Park Pl,Chapel Hill,NC,27517,850000,3,3.5,Meadowmont,4334,3833,2006,477,196,379,Sold,,,http://www.redfin.com/NC/Chapel-Hill/325-Circle-Park-Pl-27517/home/44409551,TMLS,2185156,N,Y,35.909514,-79.0123696
PAST SALE,,Single Family Residential,5812 Crescent Dr,Chapel Hill,NC,27517,685000,3,2.0,,2184,84419,1969,,314,,,,,http://www.redfin.com/NC/Chapel-Hill/5812-Crescent-Dr-27517/home/43550457,,,N,Y,35.9143358,-78.9877806
PAST SALE,July-18-2019,Single Family Residential,7814 Kennebec Dr,Chapel Hill,NC,27517,692000,3,4.0,The Downs,4200,217800,2004,309,165,,Sold,,,http://www.redfin.com/NC/Chapel-Hill/7814-Kennebec-Dr-27517/home/43550548,TMLS,2235503,N,Y,35.8715513,-78.9951852
PAST SALE,November-30-2018,Single Family Residential,1020 Highland Woods Rd,Chapel Hill,NC,27517-4410,835000,4,2.5,Highland Woods,2806,36590,1958,539,298,8,Sold,,,http://www.redfin.com/NC/Chapel-Hill/1020-Highland-Woods-Rd-27517/home/44396328,TMLS,2212438,N,Y,35.9032998,-79.02621
PAST SALE,June-12-2019,Single Family Residential,1044 Pinehurst Dr,Chapel Hill,NC,27517,845000,4,2.5,Meadowmont,3667,11761,2002,345,230,41,Sold,,,http://www.redfin.com/NC/Chapel-Hill/1044-Pinehurst-Dr-27517/home/44419516,TMLS,2239113,N,Y,35.9127477,-79.0141994
PAST SALE,June-21-2019,Single Family Residential,315 Meadowmont Ln,Chapel Hill,NC,27517,1430000,6,6.0,Meadowmont,6733,17859,2005,336,212,41,Sold,,,http://www.redfin.com/NC/Chapel-Hill/315-Meadowmont-Ln-27517/home/44419127,TMLS,2236912,N,Y,35.9100465,-79.0083923
PAST SALE,June-27-2019,Single Family Residential,101 Nottingham Dr,Chapel Hill,NC,27517,725000,5,3.0,The Oaks,2700,43124,1987,330,269,100,Sold,,,http://www.redfin.com/NC/Chapel-Hill/101-Nottingham-Dr-27517/home/44413943,TMLS,2244908,N,Y,35.931637,-79.006223
PAST SALE,August-6-2019,Single Family Residential,1035 Pinehurst Dr,Chapel Hill,NC,27517,870000,5,4.0,Meadowmont,4337,12632,2002,290,201,41,Sold,,,http://www.redfin.com/NC/Chapel-Hill/1035-Pinehurst-Dr-27517/home/44409012,TMLS,2241306,N,Y,35.912267,-79.013681
PAST SALE,June-10-2019,Single Family Residential,418 Dragonfly Trl,Chapel Hill,NC,27517-9503,700000,4,3.0,Chatham,3525,146797,2006,347,199,,Sold,,,http://www.redfin.com/NC/Chapel-Hill/418-Dragonfly-Trl-27517/home/41387252,TMLS,2248938,N,Y,35.8572089,-79.0522801
PAST SALE,May-10-2019,Single Family Residential,178 Windfall Creek Dr,Chapel Hill,NC,27517,750000,5,4.5,Windfall,4738,197326,2007,378,158,66,Sold,,,http://www.redfin.com/NC/Chapel-Hill/178-Windfall-Creek-Dr-27517/home/41388778,TMLS,2238537,N,Y,35.7448406,-79.0584588
PAST SALE,April-5-2019,Single Family Residential,105 Faison Rd,Chapel Hill,NC,27517,849000,4,4.0,Meadowmont,3711,10454,2002,413,229,41,Sold,,,http://www.redfin.com/NC/Chapel-Hill/105-Faison-Rd-27517/home/44417979,TMLS,2236757,N,Y,35.9125728,-79.0157229
PAST SALE,May-2-2019,Single Family Residential,864 Pinehurst Dr,Chapel Hill,NC,27517,1110000,5,4.5,The Oaks,5907,39204,1988,386,188,,Sold,,,http://www.redfin.com/NC/Chapel-Hill/864-Pinehurst-Dr-27517/home/44414627,TMLS,2237563,N,Y,35.9250783,-79.0101276
PAST SALE,November-29-2018,Single Family Residential,205 Sierra Dr,Chapel Hill,NC,27514,760000,5,3.5,Chesley,4210,21344,1989,540,181,15,Sold,,,http://www.redfin.com/NC/Chapel-Hill/205-Sierra-Dr-27514/home/44405172,TMLS,2216446,N,Y,35.931545,-79.010175
PAST SALE,August-23-2018,Single Family Residential,340 Oxfordshire Ln,Chapel Hill,NC,27517,653700,5,4.5,Southpoint Manor,4323,14810,2005,638,151,67,Sold,,,http://www.redfin.com/NC/Chapel-Hill/340-Oxfordshire-Ln-27517/home/43605755,TMLS,2191304,N,Y,35.895752,-78.977483
PAST SALE,February-28-2019,Single Family Residential,63 Bear Tree Crk,Chapel Hill,NC,27517,750000,5,4.5,The Preserve at Jordan Lake,4100,18730,2018,449,183,83,Sold,,,http://www.redfin.com/NC/Chapel-Hill/63-Bear-Tree-Crk-27517/home/41374880,TMLS,2199200,N,Y,35.7697734,-79.0539786
PAST SALE,December-3-2018,Single Family Residential,527 The Preserve Trl,Chapel Hill,NC,27517,850000,5,4.5,The Preserve at Jordan Lake,5953,28314,2006,536,143,83,Sold,,,http://www.redfin.com/NC/Chapel-Hill/527-The-Preserve-Trl-27517/home/41384433,TMLS,2182361,N,Y,35.7737971,-79.0560532
PAST SALE,,Other,566 Sun Forest Way,Chapel Hill,NC,27517,965000,,,,,37897,,,,,,,,http://www.redfin.com/NC/Chapel-Hill/566-Sun-Forest-Way-27517/home/41382853,,,N,Y,35.862089,-79.068245
PAST SALE,June-28-2019,Single Family Residential,19220 Stone Brk,Chapel Hill,NC,27519,699000,4,4.0,Stone Brook,3877,13068,2018,329,180,360,Sold,,,http://www.redfin.com/NC/Chapel-Hill/19220-Stone-Brk-27517/home/41366614,TMLS,2205043,N,Y,35.8404251,-79.0610188
PAST SALE,June-10-2019,Single Family Residential,3 Winners Cir,Durham,NC,27713,770000,4,4.5,Keeneland Manor,4340,61158,2012,347,177,118,Sold,,,http://www.redfin.com/NC/Durham/3-Winners-Cir-27713/home/43611219,TMLS,2248061,N,Y,35.882563,-78.970716
PAST SALE,August-16-2018,Single Family Residential,265 Broad Leaf Ct,Chapel Hill,NC,27517,740000,5,4.5,The Preserve at Jordan Lake,5383,35283,2011,645,137,83,Sold,,,http://www.redfin.com/NC/Chapel-Hill/265-Broad-Leaf-Ct-27517/home/44540131,TMLS,2179477,N,Y,35.7786904,-79.0490126
PAST SALE,October-9-2019,Single Family Residential,20102 Scott,Chapel Hill,NC,27517,700000,3,3.5,Governors Club,3091,58370,1992,226,226,269,Sold,,,http://www.redfin.com/NC/Chapel-Hill/20102-Scott-27517/home/41383245,TMLS,2270831,N,Y,35.8419628,-79.0440545
PAST SALE,July-2-2019,Single Family Residential,557 Lystra Preserve Dr,Chapel Hill,NC,27517,950000,5,5.5,Lystra Preserve,5960,436035,2015,325,159,125,Sold,,,http://www.redfin.com/NC/Chapel-Hill/557-Lystra-Preserve-Dr-27517/home/41391151,TMLS,2253894,N,Y,35.8278272,-79.0670875
PAST SALE,May-30-2019,Single Family Residential,97628 Franklin Rdg,Chapel Hill,NC,27517,685000,4,3.5,Governors Club,3846,52272,1997,358,178,269,Sold,,,http://www.redfin.com/NC/Chapel-Hill/97628-Franklin-Rdg-27517/home/41374031,TMLS,2242480,N,Y,35.8493185,-79.0514551
PAST SALE,August-9-2019,Single Family Residential,5009 Mill Hill Ln,Durham,NC,27517,680000,6,5.0,Trenton,4677,20691,2006,287,145,16,Sold,,,http://www.redfin.com/NC/Chapel-Hill/5009-Mill-Hill-Ln-27517/home/43597823,TMLS,2261648,N,Y,35.9229492,-78.9776288
PAST SALE,July-11-2017,Townhouse,202 W Barbee Chapel Rd,Chapel Hill,NC,27517,675000,3,4.0,Meadowmont,4012,,2004,1046,168,336,Sold,,,http://www.redfin.com/NC/Chapel-Hill/202-W-Barbee-Chapel-Rd-27517/home/44418984,TMLS,2117238,N,Y,35.9064027,-79.0132089
PAST SALE,,Single Family Residential,112 Simerville Rd,Chapel Hill,NC,27517,1020000,4,3.5,,5927,10019,2002,,172,,,,,http://www.redfin.com/NC/Chapel-Hill/112-Simerville-Rd-27517/home/44408654,,,N,Y,35.912263,-79.0096289
PAST SALE,April-18-2018,Townhouse,329 Circle Park Pl,Chapel Hill,NC,27517-8164,895000,4,5.5,Summit Park,6380,6969,2006,765,140,380,Sold,,,http://www.redfin.com/NC/Chapel-Hill/329-Circle-Park-Pl-27517/home/44419551,TMLS,2179111,N,Y,35.9094504,-79.0120382
PAST SALE,,Single Family Residential,201 Faison Rd,Chapel Hill,NC,27517,1015000,,4.0,,4445,12632,2002,,228,,,,,http://www.redfin.com/NC/Chapel-Hill/201-Faison-Rd-27517/home/44419463,,,N,Y,35.9119786,-79.0147514
PAST SALE,August-9-2019,Single Family Residential,4 Winners Cir,Durham,NC,27713,810000,4,5.5,Keeneland Manor,4366,48787,2009,287,186,118,Sold,,,http://www.redfin.com/NC/Durham/4-Winners-Cir-27713/home/43610698,TMLS,2250340,N,Y,35.881926,-78.970493
PAST SALE,May-10-2018,Single Family Residential,225 Ocoee Falls Dr,Chapel Hill,NC,27517,805000,5,5.0,Windfall,6555,147232,2008,743,123,66,Sold,,,http://www.redfin.com/NC/Chapel-Hill/225-Ocoee-Falls-Dr-27517/home/41389107,TMLS,2178826,N,Y,35.741879,-79.0631594
PAST SALE,April-8-2019,Single Family Residential,602 Westfall Way,Chapel Hill,NC,27517,750000,3,4.0,Westfall,3289,34412,2017,410,228,120,Sold,,,http://www.redfin.com/NC/Chapel-Hill/602-Westfall-Way-27517/home/41392746,TMLS,2200498,N,Y,35.8217265,-79.0563401
PAST SALE,June-20-2017,Single Family Residential,104 Patton Pl,Chapel Hill,NC,27517,799000,4,3.5,The Oaks,3632,34412,1994,1067,220,6,Sold,,,http://www.redfin.com/NC/Chapel-Hill/104-Patton-Pl-27517/home/43548850,TMLS,2120173,N,Y,35.9290982,-79.0034461
PAST SALE,April-2-2018,Single Family Residential,317 Nottingham Dr,Chapel Hill,NC,27517,795000,4,3.5,The Oaks,3622,21780,2004,781,219,,Sold,,,http://www.redfin.com/NC/Chapel-Hill/317-Nottingham-Dr-27517/home/43551557,TMLS,2171403,N,Y,35.925103,-78.999962
PAST SALE,May-15-2018,Single Family Residential,119 Black Oak Pl,Chapel Hill,NC,27517,1250000,5,3.5,The Oaks,4013,56628,1985,738,311,,Sold,,,http://www.redfin.com/NC/Chapel-Hill/119-Black-Oak-Pl-27517/home/44412854,TMLS,2173125,N,Y,35.9243634,-79.007487
PAST SALE,May-25-2017,Single Family Residential,101 Black Oak Pl,Chapel Hill,NC,27517,1139000,5,4.0,The Oaks,4918,36590,1987,1093,232,100,Sold,,,http://www.redfin.com/NC/Chapel-Hill/101-Black-Oak-Pl-27517/home/44395785,TMLS,2116387,N,Y,35.9247678,-79.0093639
PAST SALE,,Vacant Land,4919 Farrington Rd,Chapel Hill,NC,27517,874000,2,2.5,,3232,188484,2002,,270,,,,,http://www.redfin.com/NC/Chapel-Hill/4919-Farrington-Rd-27517/home/43575299,,,N,Y,35.9286403,-78.9886114
PAST SALE,November-16-2017,Vacant Land,125 New Castle Dr,Chapel Hill,NC,27517,990000,,,The Oaks,,45738,,918,,,Sold,,,http://www.redfin.com/NC/Chapel-Hill/125-New-Castle-Dr-27517/home/45070147,TMLS,2117061,N,Y,35.9235603,-79.0060738
PAST SALE,August-14-2017,Single Family Residential,265 Brown Bear,Chapel Hill,NC,27517,848922,4,3.0,The Preserve at Jordan Lake,4249,21780,2017,1012,200,83,Sold,,,http://www.redfin.com/NC/Chapel-Hill/265-Brown-Bear-27517/home/41384270,TMLS,2038036,N,Y,35.7702134,-79.058547
PAST SALE,July-26-2017,Single Family Residential,512 Windfall Creek Dr,Chapel Hill,NC,27517,960000,4,4.0,Windfall,4980,258528,2017,1031,193,60,Sold,,,http://www.redfin.com/NC/Chapel-Hill/512-Windfall-Creek-Dr-27517/unit-27/home/52301838,TMLS,2080012,N,Y,35.7491528,-79.0615373
PAST SALE,March-19-2019,Single Family Residential,215 The Preserve Trl,Chapel Hill,NC,27517,835000,4,3.5,The Preserve at Jordan Lake,3839,21780,2018,430,218,83,Sold,,,http://www.redfin.com/NC/Chapel-Hill/215-The-Preserve-Trl-27517/home/41364279,TMLS,2181688,N,Y,35.7692071,-79.0533165
PAST SALE,,Condo/Co-op,101 Europa Dr Ste 150,Chapel Hill,NC,27517,1150000,,,,4240,,,,271,,,,,http://www.redfin.com/NC/Chapel-Hill/101-Europa-Dr-27517/unit-150/home/44425889,,,N,Y,35.940049,-79.0171161
PAST SALE,May-4-2018,Vacant Land,1015 Pinehurst Dr,Chapel Hill,NC,27517,730000,,,The Oaks,,45302,,749,,,Sold,,,http://www.redfin.com/NC/Chapel-Hill/1015-Pinehurst-Dr-27517/home/44546321,TMLS,2150548,N,Y,35.9147964,-79.0135039
PAST SALE,August-26-2019,Single Family Residential,105 Botanical Way,Chapel Hill,NC,27517,1350000,5,5.0,Creekside,6134,34848,2005,270,220,73,Sold,,,http://www.redfin.com/NC/Chapel-Hill/105-Botanical-Way-27517/home/44422744,TMLS,2244916,N,Y,35.8921998,-79.0476109
PAST SALE,June-13-2019,Single Family Residential,115 Waterford Pl,Chapel Hill,NC,27517,1250000,5,3.5,The Oaks,5025,27878,1987,344,249,,Sold,,,http://www.redfin.com/NC/Chapel-Hill/115-Waterford-Pl-27517/home/44396477,TMLS,2240364,N,Y,35.9264121,-79.0055439
PAST SALE,July-8-2019,Single Family Residential,203 Park Bluff Dr,Chapel Hill,NC,27517,672500,5,5.0,Meadowmont,4416,12458,2005,319,152,41,Sold,,,http://www.redfin.com/NC/Chapel-Hill/203-Park-Bluff-Dr-27517/home/43598355,TMLS,2253658,N,Y,35.9145001,-79.0037994
PAST SALE,August-1-2019,Single Family Residential,203 Faison Rd,Chapel Hill,NC,27517,852000,4,3.5,Meadowmont,3524,10018,2002,295,242,,Sold,,,http://www.redfin.com/NC/Chapel-Hill/203-Faison-Rd-27517/home/44420187,TMLS,2242441,N,Y,35.9117915,-79.0147735
PAST SALE,August-2-2019,Single Family Residential,100 York Pl,Chapel Hill,NC,27517,1045000,4,3.5,The Oaks,3440,48351,1987,294,304,,Sold,,,http://www.redfin.com/NC/Chapel-Hill/100-York-Pl-27517/home/44412883,TMLS,2242613,N,Y,35.9319609,-79.0070833
PAST SALE,August-22-2019,Single Family Residential,304 Madera Ln,Chapel Hill,NC,27517,950000,5,5.0,Orange,5939,81892,1995,274,160,21,Sold,,,http://www.redfin.com/NC/Chapel-Hill/304-Madera-Ln-27517/home/44396140,TMLS,2259754,N,Y,35.8845544,-79.0313758
PAST SALE,August-29-2019,Single Family Residential,1005 Mocker Nut Ln Lot 8,Chapel Hill,NC,27517,675621,4,4.0,South Grove,3537,30056,2019,267,191,78,Sold,,,http://www.redfin.com/NC/Chapel-Hill/1005-Mocker-Nut-Ln-27517/unit-8/home/148526202,TMLS,2228518,N,Y,35.8657565,-79.0718588
PAST SALE,October-1-2019,Single Family Residential,105 Kyleway Dr,Chapel Hill,NC,27517,670000,4,3.0,The Downs,2684,372002,1977,234,250,,Sold,,,http://www.redfin.com/NC/Chapel-Hill/105-Kyle-Way-Dr-27517/home/43550001,TMLS,2269381,N,Y,35.865958,-78.988018
PAST SALE,,Condo/Co-op,203 Cedar Berry Ln #4,Chapel Hill,NC,27517,940000,2,2.5,,2881,,2004,,326,,,,,http://www.redfin.com/NC/Chapel-Hill/203-Cedar-Berry-Ln-27517/unit-4/home/43600272,,,N,Y,35.9073796,-79.0062969
PAST SALE,January-11-2019,Single Family Residential,48 Swaying Trees Ct,Chapel Hill,NC,27517,850000,5,3.0,Windfall,5017,143312,2017,497,169,66,Sold,,,http://www.redfin.com/NC/Chapel-Hill/48-Swaying-Trees-Ct-27517/home/41387159,TMLS,2201970,N,Y,35.745332,-79.0594519
PAST SALE,August-14-2018,Single Family Residential,104 Silers Fen Ct,Chapel Hill,NC,27517,1300000,4,6.0,Glen Eagles,4950,121532,2002,647,263,50,Sold,,,http://www.redfin.com/NC/Chapel-Hill/104-Siler-s-Fen-Ct-27517/home/44393997,CANOPYMLS,3406789,N,Y,35.8926319,-79.0268786
PAST SALE,July-6-2018,Single Family Residential,600 Willowbend Dr,Chapel Hill,NC,27517,1105000,5,6.0,Willowbend Plantation,5361,444529,1999,686,206,167,Sold,,,http://www.redfin.com/NC/Chapel-Hill/600-Willowbend-Dr-27517/home/41378531,TMLS,2190007,N,Y,35.8231238,-79.005853
PAST SALE,,Townhouse,211 Meadowmont Ln,Chapel Hill,NC,27517,937500,,,,,,,,,,,,,http://www.redfin.com/NC/Chapel-Hill/211-Meadowmont-Ln-27517/home/95969548,,,N,Y,35.907386,-79.0091419
PAST SALE,,Other,1104 Pinehurst Dr,Chapel Hill,NC,27517,750000,,,,,27007,,,,,,,,http://www.redfin.com/NC/Chapel-Hill/1104-Pinehurst-Dr-27517/home/44543755,,,N,Y,35.911934,-79.01708
PAST SALE,December-14-2017,Single Family Residential,1001 Shagbark Ct,Chapel Hill,NC,27517,665000,4,3.5,South Grove,4136,39204,2017,890,161,78,Sold,,,http://www.redfin.com/NC/Chapel-Hill/1001-Shagbark-Ct-27517/home/144852022,TMLS,2157265,N,Y,35.8655675,-79.0745239
PAST SALE,June-26-2018,Single Family Residential,10430 Swain,Chapel Hill,NC,27517,783000,4,3.5,Governors Club,3573,43560,2018,696,219,244,Sold,,,http://www.redfin.com/NC/Chapel-Hill/10430-Swain-27517/home/41380354,TMLS,2159185,N,Y,35.8362198,-79.053493
PAST SALE,November-15-2017,Single Family Residential,12044 Iredell,Chapel Hill,NC,27517,830000,4,5.0,Governors Club,7312,51836,1998,919,114,222,Sold,,,http://www.redfin.com/NC/Chapel-Hill/12044-Iredell-27517/home/41376504,TMLS,2124543,N,Y,35.8439422,-79.0324134
PAST SALE,April-16-2018,Single Family Residential,10413 Manly,Chapel Hill,NC,27517,965000,3,5.0,Estates,4954,28706,2002,767,195,244,Sold,,,http://www.redfin.com/NC/Chapel-Hill/10413-Manly-27517/home/41375412,TMLS,2179820,N,Y,35.8473756,-79.0450396
PAST SALE,April-19-2018,Single Family Residential,79001 Hawkins,Chapel Hill,NC,27517,716364,4,3.5,Morehead Forest,3749,14374,1996,764,191,244,Sold,,,http://www.redfin.com/NC/Chapel-Hill/79001-Hawkins-27517/home/41378429,TMLS,2169870,N,Y,35.8386725,-79.034378
PAST SALE,April-27-2018,Single Family Residential,435 Davis Love Dr,Chapel Hill,NC,27517,739000,5,3.5,The Preserve at Jordan Lake,6247,16291,2006,756,118,83,Sold,,,http://www.redfin.com/NC/Chapel-Hill/435-Davis-Love-Dr-27517/home/41377588,TMLS,2170671,N,Y,35.7886939,-79.0570463
PAST SALE,May-31-2017,Single Family Residential,55219 Broughton,Chapel Hill,NC,27519,774000,4,4.0,Governors Club,3674,39639,1994,1087,211,200,Sold,,,http://www.redfin.com/NC/Chapel-Hill/55219-Broughton-27517/home/41366940,TMLS,2110630,N,Y,35.8487233,-79.0423026
PAST SALE,June-6-2018,Single Family Residential,11404 Governors Dr,Chapel Hill,NC,27517,942500,4,5.5,Governors Club,6460,60548,1995,716,146,244,Sold,,,http://www.redfin.com/NC/Chapel-Hill/11404-Governors-Dr-27517/home/41381454,TMLS,2176436,N,Y,35.8397667,-79.0526985
PAST SALE,June-22-2018,Single Family Residential,67 Eagles Watch Ln,Chapel Hill,NC,27517,699900,5,4.5,Westfall,4844,37026,2015,700,144,109,Sold,,,http://www.redfin.com/NC/Chapel-Hill/67-Eagles-Watch-Ln-27517/home/41392322,TMLS,2170664,N,Y,35.8216231,-79.0540669
PAST SALE,June-26-2018,Single Family Residential,807 Oxfordshire Ln,Chapel Hill,NC,27517,775000,6,5.0,Southpoint Manor,4963,17903,2007,696,156,80,Sold,,,http://www.redfin.com/NC/Chapel-Hill/807-Oxfordshire-Ln-27517/home/43602773,TMLS,2189044,N,Y,35.891017,-78.977096
PAST SALE,June-22-2018,Single Family Residential,205 Bolinas Ct,Chapel Hill,NC,27517,675000,4,3.5,Orange,4333,53578,1995,700,156,50,Sold,,,http://www.redfin.com/NC/Chapel-Hill/205-Bolinas-Ct-27517/home/44413864,TMLS,2187867,N,Y,35.8847839,-79.0342125
PAST SALE,December-22-2017,Single Family Residential,117 Beechridge Ct,Chapel Hill,NC,27517,1200000,6,6.5,Beechridge,6900,118918,2002,882,174,17,Sold,,,http://www.redfin.com/NC/Chapel-Hill/117-Beechridge-Ct-27517/home/44409853,TMLS,2107482,N,Y,35.8861617,-79.0506861
PAST SALE,July-19-2019,Single Family Residential,71011 Russell,Chapel Hill,NC,27517,688000,4,3.5,Wilkinson Park,4127,18730,2019,308,167,269,Sold,,,http://www.redfin.com/NC/Chapel-Hill/71011-Russell-27517/unit-1081/home/45369658,TMLS,2212390,N,Y,35.8346066,-79.0435212
PAST SALE,June-19-2018,Single Family Residential,239 Parker Rd,Chapel Hill,NC,27517,815000,6,4.5,Reserve Estates,4797,47480,2000,703,170,,Sold,,,http://www.redfin.com/NC/Chapel-Hill/239-Parker-Rd-27517/home/44408372,TMLS,2187563,N,Y,35.8811584,-79.0362985
PAST SALE,,Condo/Co-op,219 Cedar Berry Ln #12,Chapel Hill,NC,27517,725000,2,2.5,,2416,,2003,,300,,,,,http://www.redfin.com/NC/Chapel-Hill/219-Cedar-Berry-Ln-27517/unit-12/home/43598996,,,N,Y,35.9073796,-79.0062969
PAST SALE,June-10-2019,Single Family Residential,113 Nottingham Dr,Chapel Hill,NC,27517,688500,3,2.5,The Oaks,2825,50529,1990,347,244,100,Sold,,,http://www.redfin.com/NC/Chapel-Hill/113-Nottingham-Dr-27517/home/44393995,TMLS,2247919,N,Y,35.9312716,-79.0053359
PAST SALE,,Single Family Residential,108 Alder Pl,Chapel Hill,NC,27517,965000,4,3.5,,3900,30056,1987,,247,,,,,http://www.redfin.com/NC/Chapel-Hill/108-Alder-Pl-27517/home/44394080,,,N,Y,35.9284774,-79.0051464
PAST SALE,August-8-2019,Single Family Residential,202 Simerville Rd,Chapel Hill,NC,27517,885000,5,4.5,Meadowmont,3808,21780,2002,288,232,41,Sold,,,http://www.redfin.com/NC/Chapel-Hill/202-Simerville-Rd-27517/home/44408162,TMLS,2271873,N,Y,35.9125045,-79.0104238
PAST SALE,July-9-2019,Townhouse,208 Oval Park Pl,Chapel Hill,NC,27517,1050000,3,4.5,Summit Park,5354,4356,2004,318,196,396,Sold,,,http://www.redfin.com/NC/Chapel-Hill/208-Oval-Park-Pl-27517/home/44420503,TMLS,2239182,N,Y,35.907428,-79.01308
PAST SALE,July-13-2018,Single Family Residential,226 Keeneland Ct,Durham,NC,27713,800000,4,3.5,Keeneland Manor,3990,54711,2011,679,201,118,Sold,,,http://www.redfin.com/NC/Durham/226-Keeneland-Ct-27713/home/43609734,TMLS,2180273,N,Y,35.8812635,-78.972703
PAST SALE,March-14-2019,Single Family Residential,50118 Manly,Chapel Hill,NC,27517,742500,4,4.0,Governors Club,4189,30927,1992,435,177,269,Sold,,,http://www.redfin.com/NC/Chapel-Hill/50118-Manly-27517/home/41379704,TMLS,2167610,N,Y,35.8521346,-79.041556
PAST SALE,June-29-2018,Single Family Residential,70019 Morehead,Chapel Hill,NC,27517,715000,4,5.0,Governors Club,4692,33105,1998,693,152,244,Sold,,,http://www.redfin.com/NC/Chapel-Hill/70019-Morehead-27517/home/41364110,TMLS,2173117,N,Y,35.836475,-79.0443554
PAST SALE,September-13-2018,Single Family Residential,109 Serrano Way,Chapel Hill,NC,27517,787000,6,5.0,Orange,5775,53578,1995,617,136,50,Sold,,,http://www.redfin.com/NC/Chapel-Hill/109-Serrano-Way-27517/home/44412418,TMLS,2204428,N,Y,35.8834487,-79.0341021
PAST SALE,May-9-2019,Single Family Residential,213 Rhododendron Dr,Chapel Hill,NC,27517,825000,5,4.5,Orange,4389,46609,1994,379,188,50,Sold,,,http://www.redfin.com/NC/Chapel-Hill/213-Rhododendron-Dr-27517/home/44412427,TMLS,2239437,N,Y,35.8855442,-79.0355039
PAST SALE,July-22-2019,Single Family Residential,105 Umbrio Ln,Chapel Hill,NC,27517,817000,6,6.0,Orange,5656,44866,1994,305,144,58,Sold,,,http://www.redfin.com/NC/Chapel-Hill/105-Umbrio-Ln-27517/home/44390962,TMLS,2242796,N,Y,35.8874819,-79.0353052
PAST SALE,June-7-2018,Single Family Residential,470 Sun Forest Way,Chapel Hill,NC,27517-7717,1035000,5,5.5,Sun Forest,5635,294030,2014,715,184,90,Sold,,,http://www.redfin.com/NC/Chapel-Hill/470-Sun-Forest-Way-27517/home/44548751,TMLS,2116340,N,Y,35.8613385,-79.0733765
PAST SALE,June-23-2017,Single Family Residential,10399 Holt,Chapel Hill,NC,27517,939000,5,4.5,Governors Club,6434,31798,2005,1064,146,222,Sold,,,http://www.redfin.com/NC/Chapel-Hill/10399-Holt-27517/home/41380412,TMLS,2100604,N,Y,35.8476746,-79.0510432
PAST SALE,,Single Family Residential,216 W Barbee Chapel Rd,Chapel Hill,NC,27517,785000,3,3.5,,3058,5227,2002,,257,,,,,http://www.redfin.com/NC/Chapel-Hill/216-W-Barbee-Chapel-Rd-27517/home/44409485,,,N,Y,35.9068697,-79.0135992
PAST SALE,,Vacant Land,125 New Castle Dr,Chapel Hill,NC,27517,990000,,,,,45738,,,,,,,,http://www.redfin.com/NC/Chapel-Hill/125-New-Castle-Dr-27517/home/144862310,,,N,Y,35.9235603,-79.0060738
PAST SALE,,Vacant Land,107 Alder Pl,Chapel Hill,NC,27517,675000,,,,,24394,,,,,,,,http://www.redfin.com/NC/Chapel-Hill/107-Alder-Pl-27517/home/144859593,,,N,Y,35.928841,-79.005406
PAST SALE,October-15-2019,Vacant Land,TBD-1 Alder Pl,Chapel Hill,NC,27517,675000,,,The Oaks,,24393,,220,,,Sold,,,http://www.redfin.com/NC/Chapel-Hill/Alder-Pl-27517/home/144264385,TMLS,2159760,N,Y,35.92833,-79.00631
PAST SALE,October-2-2017,Single Family Residential,325 Sun Forest Way,Chapel Hill,NC,27517,875000,3,3.0,Sun Forest,2743,448668,1994,963,319,90,Sold,,,http://www.redfin.com/NC/Chapel-Hill/325-Sun-Forest-Way-27517/home/41368991,TMLS,2141980,N,Y,35.8598346,-79.0709713
PAST SALE,December-8-2017,Single Family Residential,10433 Swain,Chapel Hill,NC,27517,870000,5,4.5,Governors Club,4875,38332,2017,896,178,222,Sold,,,http://www.redfin.com/NC/Chapel-Hill/10433-Swain-27517/home/41388465,TMLS,2113848,N,Y,35.8365492,-79.0573111
PAST SALE,December-28-2017,Single Family Residential,106 Founders Ridge Dr,Chapel Hill,NC,27517,1200000,4,4.5,Chancellors View,4269,20908,2009,876,281,70,Sold,,,http://www.redfin.com/NC/Chapel-Hill/106-Founders-Ridge-Dr-27517/home/44424828,TMLS,2156652,N,Y,35.880672,-79.0557221
PAST SALE,January-5-2018,Single Family Residential,107 Botanical Way,Chapel Hill,NC,27517,1305000,4,4.0,Creekside,4791,34848,2006,868,272,67,Sold,,,http://www.redfin.com/NC/Chapel-Hill/107-Botanical-Way-27517/home/44423835,TMLS,2151505,N,Y,35.8918643,-79.0475117
PAST SALE,December-20-2017,Single Family Residential,520 Lystra Preserve Dr,Chapel Hill,NC,27517,800000,4,3.5,Lystra Preserve,4273,470448,2017,884,187,108,Sold,,,http://www.redfin.com/NC/Chapel-Hill/520-Lystra-Preserve-Dr-27517/home/41391141,TMLS,2113840,N,Y,35.8280545,-79.0704858
PAST SALE,November-20-2017,Condo/Co-op,331 W Barbee Chapel Rd #331,Chapel Hill,NC,27517,1300000,3,2.0,Meadowmont,2840,,2008,914,458,788,Sold,,,http://www.redfin.com/NC/Chapel-Hill/331-W-Barbee-Chapel-Rd-27517/unit-331/home/161267874,TMLS,2068174,N,Y,35.9068064,-79.0152688
PAST SALE,June-16-2017,Single Family Residential,208 Falkner Dr,Chapel Hill,NC,27517,900000,5,4.5,Meadowmont,4087,9147,2003,1071,220,40,Sold,,,http://www.redfin.com/NC/Chapel-Hill/208-Falkner-Dr-27517/home/44418139,TMLS,2114807,N,Y,35.9121045,-79.0113291
PAST SALE,June-6-2017,Single Family Residential,118 Nottingham Dr,Chapel Hill,NC,27517-6523,787500,4,2.0,The Oaks,2448,35719,1986,1081,322,,Sold,,,http://www.redfin.com/NC/Chapel-Hill/118-Nottingham-Dr-27517/home/44413450,TMLS,2118095,N,Y,35.9303741,-79.0056023
PAST SALE,July-27-2017,Single Family Residential,112 Beechridge Ct,Chapel Hill,NC,27517,755000,5,5.5,Beechridge,4672,58370,2000,1030,162,17,Sold,,,http://www.redfin.com/NC/Chapel-Hill/112-Beechridge-Ct-27517/home/44408912,TMLS,2113774,N,Y,35.887666,-79.0519481
PAST SALE,October-17-2017,Townhouse,215 Oval Park Pl,Chapel Hill,NC,27517,890000,3,5.5,Meadowmont,4076,3049,2003,948,218,272,Sold,,,http://www.redfin.com/NC/Chapel-Hill/215-Oval-Park-Pl-27517/home/44420955,TMLS,2151076,N,Y,35.9080314,-79.0136695
PAST SALE,September-29-2017,Single Family Residential,10428 Swain,Chapel Hill,NC,27517,770000,4,5.5,Governors Club,4952,54885,2006,966,155,206,Sold,,,http://www.redfin.com/NC/Chapel-Hill/10428-Swain-27517/home/41364803,TMLS,2114986,N,Y,35.8364048,-79.0529854
PAST SALE,September-8-2017,Single Family Residential,403 Simerville Rd,Chapel Hill,NC,27517-7805,900000,6,4.5,Meadowmont,5337,14810,2002,987,169,40,Sold,,,http://www.redfin.com/NC/Chapel-Hill/403-Simerville-Rd-27517/home/44418126,TMLS,2143653,N,Y,35.9120029,-79.0122785
PAST SALE,February-28-2018,Single Family Residential,107 Black Oak Pl,Chapel Hill,NC,27517,737000,5,3.5,The Oaks,3058,46173,1986,814,241,8,Sold,,,http://www.redfin.com/NC/Chapel-Hill/107-Black-Oak-Pl-27517/home/44394783,TMLS,2128575,N,Y,35.9248789,-79.0087456
PAST SALE,May-15-2018,Single Family Residential,1106 Burning Tree Dr,Chapel Hill,NC,27517,1030000,5,4.0,The Oaks,4106,32670,1975,738,251,5,Sold,,,http://www.redfin.com/NC/Chapel-Hill/1106-Burning-Tree-Dr-27517/home/44395650,TMLS,2176265,N,Y,35.9114078,-79.0192776
PAST SALE,February-12-2018,Single Family Residential,103 Morgan Bend Ct,Chapel Hill,NC,27517,900000,6,4.5,Morgan Bend,3945,48787,1998,830,228,,Sold,,,http://www.redfin.com/NC/Chapel-Hill/103-Morgan-Bend-Ct-27517/home/44412838,TMLS,2166746,N,Y,35.8896479,-79.0468815
PAST SALE,May-15-2018,Single Family Residential,116 Serrano Way,Chapel Hill,NC,27517,664000,4,4.0,Orange,4220,50094,1995,738,157,42,Sold,,,http://www.redfin.com/NC/Chapel-Hill/116-Serrano-Way-27517/home/44395618,TMLS,2181445,N,Y,35.8829462,-79.0330977
PAST SALE,June-18-2018,Single Family Residential,1148 Pinehurst Dr,Chapel Hill,NC,27517,1500000,6,6.0,Meadowmont,6228,20037,2002,704,241,41,Sold,,,http://www.redfin.com/NC/Chapel-Hill/1148-Pinehurst-Dr-27517/home/44406682,TMLS,2175309,N,Y,35.908802,-79.0167827
PAST SALE,January-29-2018,Single Family Residential,100 Kinsale Dr,Chapel Hill,NC,27517,750000,4,3.5,The Oaks,5040,25221,1999,844,149,6,Sold,,,http://www.redfin.com/NC/Chapel-Hill/100-Kinsale-Dr-27517/home/43551576,TMLS,2148919,N,Y,35.9265479,-79.000486
PAST SALE,,Condo/Co-op,100 Cedar Meadows Ln #39,Chapel Hill,NC,27517,915000,2,2.5,,2708,,2003,,338,,,,,http://www.redfin.com/NC/Chapel-Hill/100-Cedar-Meadows-Ln-27517/unit-39/home/43605117,,,N,Y,35.9073796,-79.0062969
PAST SALE,May-30-2018,Single Family Residential,725 Pinehurst Dr,Chapel Hill,NC,27517,1225000,4,5.0,The Oaks,4175,26136,1991,723,293,100,Sold,,,http://www.redfin.com/NC/Chapel-Hill/725-Pinehurst-Dr-27517/home/44394773,TMLS,2181222,N,Y,35.928903,-79.0084859
PAST SALE,June-18-2018,Single Family Residential,19214 Stone Brk,Chapel Hill,NC,27517,700000,4,3.5,Stone Brook,3875,13068,2017,704,181,336,Sold,,,http://www.redfin.com/NC/Chapel-Hill/19214-Stone-Brk-27517/home/41379556,TMLS,2172343,N,Y,35.8411937,-79.0609084
PAST SALE,May-30-2018,Single Family Residential,108 Botanical Way,Chapel Hill,NC,27517,702500,2,2.5,Creekside,2340,35152,2006,723,300,29,Sold,,,http://www.redfin.com/NC/Chapel-Hill/108-Botanical-Way-27517/home/44423337,TMLS,2119274,N,Y,35.8912712,-79.0481518
PAST SALE,December-12-2017,Single Family Residential,708 Meadowmont Ln,Chapel Hill,NC,27517,870000,5,5.5,Meadowmont,4850,18295,2008,892,179,41,Sold,,,http://www.redfin.com/NC/Chapel-Hill/708-Meadowmont-Ln-27517/home/43602682,TMLS,2123427,N,Y,35.9135574,-79.0033799
PAST SALE,,Condo/Co-op,102 Cedar Meadows Ln #38,Chapel Hill,NC,27517,685000,2,2.5,,2265,,2003,,302,,,,,http://www.redfin.com/NC/Chapel-Hill/102-Cedar-Meadows-Ln-27517/unit-38/home/43595397,,,N,Y,35.9073796,-79.0062969
PAST SALE,November-17-2017,Single Family Residential,109 Lynwood Pl,Chapel Hill,NC,27517,665000,4,3.0,The Oaks,2906,46609,1987,917,229,,Sold,,,http://www.redfin.com/NC/Chapel-Hill/109-Lynwood-Pl-27517/home/44397168,TMLS,2153589,N,Y,35.9312148,-79.0099822
PAST SALE,March-27-2018,Single Family Residential,208 Lancaster Dr,Chapel Hill,NC,27517,735000,4,3.5,The Oaks,3253,30492,1998,787,226,,Sold,,,http://www.redfin.com/NC/Chapel-Hill/208-Lancaster-Dr-27517/home/43549365,TMLS,2169581,N,Y,35.9190589,-79.005588
PAST SALE,,Single Family Residential,225 Galway Dr,Chapel Hill,NC,27517,1360000,5,5.5,,5736,41251,1989,,237,,,,,http://www.redfin.com/NC/Chapel-Hill/225-Galway-Dr-27517/home/43550881,,,N,Y,35.9267145,-79.0049477
PAST SALE,June-14-2018,Single Family Residential,1431 Arboretum Dr,Chapel Hill,NC,27517,652000,4,3.5,Laurel Hill,3433,33976,2007,708,190,,Sold,,,http://www.redfin.com/NC/Chapel-Hill/1431-Arboretum-Dr-27517/home/44390208,TMLS,2184904,N,Y,35.8840794,-79.041896
PAST SALE,May-26-2017,Single Family Residential,2004 Shagbark Ct,Chapel Hill,NC,27517,753999,4,4.0,South Grove,4004,32670,2016,1092,188,80,Sold,,,http://www.redfin.com/NC/Chapel-Hill/2004-Shagbark-Ct-27517/home/144852026,TMLS,2058058,N,Y,35.864384,-79.0719422
PAST SALE,August-11-2017,Single Family Residential,97511 Franklin Rdg,Chapel Hill,NC,27517,805000,5,5.5,The Estates,4542,31363,1994,1015,177,206,Sold,,,http://www.redfin.com/NC/Chapel-Hill/97511-Franklin-Rdg-27517/home/41385569,TMLS,2065945,N,Y,35.8471913,-79.0567815
PAST SALE,November-27-2017,Single Family Residential,39510 Glenn Glade,Chapel Hill,NC,27517,700000,4,6.5,Governors Club,6309,35719,2004,907,111,222,Sold,,,http://www.redfin.com/NC/Chapel-Hill/39510-Glenn-Glade-27517/home/41378893,TMLS,2086968,N,Y,35.8503014,-79.0531545
PAST SALE,July-27-2017,Single Family Residential,400 Simerville Rd,Chapel Hill,NC,27517,940500,4,3.5,Meadowmont,4397,9147,2004,1030,214,41,Sold,,,http://www.redfin.com/NC/Chapel-Hill/400-Simerville-Rd-27517/home/44419610,TMLS,2128795,N,Y,35.9124816,-79.0117707
PAST SALE,November-29-2017,Single Family Residential,908 Pinehurst Dr,Chapel Hill,NC,27517,1025000,4,3.5,The Oaks,4241,42688,1986,905,242,,Sold,,,http://www.redfin.com/NC/Chapel-Hill/908-Pinehurst-Dr-27517/home/44414613,TMLS,2152362,N,Y,35.9219858,-79.0111189
PAST SALE,April-27-2018,Single Family Residential,39407 Glenn Glade,Chapel Hill,NC,27517,810000,3,4.0,The Estates,5446,45738,1997,756,149,244,Sold,,,http://www.redfin.com/NC/Chapel-Hill/39407-Glenn-Glade-27517/home/41373350,TMLS,2151685,N,Y,35.8472598,-79.0588518
PAST SALE,June-26-2018,Single Family Residential,392 Ocoee Falls Dr,Chapel Hill,NC,27517,826866,4,4.0,Windfall,4000,133380,2018,696,207,66,Sold,,,http://www.redfin.com/NC/Chapel-Hill/392-Ocoee-Falls-Dr-27517/home/41390644,TMLS,2158591,N,Y,35.7428536,-79.0650573
PAST SALE,April-30-2018,Single Family Residential,13132 Morehead,Chapel Hill,NC,27517,800000,5,4.5,Governors Club,4452,39204,2013,753,180,244,Sold,,,http://www.redfin.com/NC/Chapel-Hill/13132-Morehead-27517/home/41377847,TMLS,2145916,N,Y,35.8454399,-79.056958
PAST SALE,June-8-2017,Single Family Residential,10722 Governors Dr,Chapel Hill,NC,27517,1125000,4,5.5,Governors Club,6228,31145,1994,1079,181,222,Sold,,,http://www.redfin.com/NC/Chapel-Hill/10722-Governors-Dr-27517/home/41381699,TMLS,2119486,N,Y,35.843042,-79.0372698
PAST SALE,May-8-2018,Single Family Residential,25301 Ludwell,Chapel Hill,NC,27517,1275000,4,4.5,Governors Club,5230,38768,2007,745,244,222,Sold,,,http://www.redfin.com/NC/Chapel-Hill/25301-Ludwell-27517/home/41380937,TMLS,2129257,N,Y,35.8401994,-79.0503517
PAST SALE,November-15-2017,Single Family Residential,10362 Stephens,Chapel Hill,NC,27517,670000,4,4.5,Governors Club,4682,15420,2005,919,143,222,Sold,,,http://www.redfin.com/NC/Chapel-Hill/10362-Stephens-27517/home/41384538,TMLS,2133829,N,Y,35.85386,-79.0475203
PAST SALE,December-4-2017,Single Family Residential,27415 Walker,Chapel Hill,NC,27517,740000,4,6.0,Walker Falls,4730,13503,1995,900,156,207,Sold,,,http://www.redfin.com/NC/Chapel-Hill/27415-Walker-27517/home/41370438,TMLS,2115518,N,Y,35.8386119,-79.0373802
PAST SALE,August-5-2019,Single Family Residential,115 Founders Ridge Dr,Chapel Hill,NC,27517,1310029,5,4.0,Chancellors View,3833,19558,2019,291,342,70,Sold,,,http://www.redfin.com/NC/Chapel-Hill/115-Founders-Ridge-Dr-27517/home/144851237,TMLS,2231313,N,Y,35.881802,-79.0568035
PAST SALE,September-24-2018,Single Family Residential,7050 Sparrow Run Ln,Chapel Hill,NC,27517,1255000,4,4.0,Orange,4002,395524,2009,606,314,,Sold,,,http://www.redfin.com/NC/Chapel-Hill/7050-Sparrow-Run-Ln-27517/home/44393476,TMLS,2205060,N,Y,35.8683441,-79.0252827
PAST SALE,July-14-2017,Single Family Residential,400 Nottingham Dr,Chapel Hill,NC,27517-6579,940000,5,5.5,The Oaks,4978,25526,1999,1043,189,6,Sold,,,http://www.redfin.com/NC/Chapel-Hill/400-Nottingham-Dr-27517/home/43548833,TMLS,2121576,N,Y,35.923972,-79.000814
PAST SALE,October-9-2017,Single Family Residential,1030 Torrey Pines Pl,Chapel Hill,NC,27517-5643,1300000,5,5.0,The Oaks,4920,29620,1971,956,264,,Sold,,,http://www.redfin.com/NC/Chapel-Hill/1030-Torrey-Pines-Pl-27517/home/44396588,TMLS,2127255,N,Y,35.9160881,-79.016345
PAST SALE,August-4-2017,Single Family Residential,235 Parker Rd,Chapel Hill,NC,27517,1343273,6,6.5,Reserve Estates,6119,123274,2016,1022,220,,Sold,,,http://www.redfin.com/NC/Chapel-Hill/235-Parker-Rd-27517/home/44525463,TMLS,2105782,N,Y,35.8814568,-79.037027
PAST SALE,October-19-2017,Single Family Residential,123 Morgan Bend Ct,Chapel Hill,NC,27514,735000,4,3.5,Morgan Bend,4224,45302,1988,946,174,,Sold,,,http://www.redfin.com/NC/Chapel-Hill/123-Morgan-Bend-Ct-27517/home/44390307,TMLS,2149906,N,Y,35.8880978,-79.0468054
PAST SALE,August-3-2017,Single Family Residential,1131 Burning Tree Dr,Chapel Hill,NC,27517,782000,5,4.5,The Oaks,3268,32234,1983,1023,239,,Sold,,,http://www.redfin.com/NC/Chapel-Hill/1131-Burning-Tree-Dr-27517/home/44395649,TMLS,2134526,N,Y,35.9082377,-79.0177321
PAST SALE,July-7-2017,Single Family Residential,117 Serrano Way,Chapel Hill,NC,27517,769000,5,4.5,Orange,4742,46173,1995,1050,162,33,Sold,,,http://www.redfin.com/NC/Chapel-Hill/117-Serrano-Way-27517/home/44414632,TMLS,2128486,N,Y,35.8844482,-79.0336496
PAST SALE,December-18-2017,Single Family Residential,201 Donegal Dr,Chapel Hill,NC,27217,825000,4,3.0,The Oaks,3252,32321,1992,886,254,6,Sold,,,http://www.redfin.com/NC/Chapel-Hill/201-Donegal-Dr-27517/home/43548894,TMLS,2133828,N,Y,35.9225207,-79.0020991
PAST SALE,June-30-2017,Single Family Residential,604 Meadowmont Ln,Chapel Hill,NC,27517,875000,4,5.0,Meadowmont,5038,23086,2005,1057,174,40,Sold,,,http://www.redfin.com/NC/Chapel-Hill/604-Meadowmont-Ln-27517/home/43597853,TMLS,2120695,N,Y,35.9135673,-79.0057647
PAST SALE,August-31-2017,Townhouse,210 W Barbee Chapel Rd,Chapel Hill,NC,27517,720000,3,4.0,Meadowmont,3940,4356,2004,995,183,336,Sold,,,http://www.redfin.com/NC/Chapel-Hill/210-W-Barbee-Chapel-Rd-27517/home/44409493,TMLS,2122818,N,Y,35.9066358,-79.0134441
PAST SALE,July-7-2017,Single Family Residential,12707 Morehead,Chapel Hill,NC,27517,715000,5,4.5,Governors Club,4891,43560,1995,1050,146,222,Sold,,,http://www.redfin.com/NC/Chapel-Hill/12707-Morehead-27517/home/41368139,TMLS,2104792,N,Y,35.8396223,-79.0476883
PAST SALE,December-15-2017,Single Family Residential,32412 Archdale,Chapel Hill,NC,27517,1400000,5,7.0,Highland Pond,7990,117176,2001,889,175,222,Sold,,,http://www.redfin.com/NC/Chapel-Hill/32412-Archdale-Dr-27517/home/41373962,TMLS,2156058,N,Y,35.8436199,-79.0527206
PAST SALE,September-25-2017,Single Family Residential,401 Nottingham Dr,Chapel Hill,NC,27517,675000,4,3.0,The Oaks,3003,22738,1998,970,225,7,Sold,,,http://www.redfin.com/NC/Chapel-Hill/401-Nottingham-Dr-27517/home/43551076,TMLS,2115229,N,Y,35.923721,-78.999942
PAST SALE,January-8-2018,Single Family Residential,705 Pinehurst Dr,Chapel Hill,NC,27517,1149000,4,3.5,The Oaks,4095,52707,1988,865,281,100,Sold,,,http://www.redfin.com/NC/Chapel-Hill/705-Pinehurst-Dr-27517/home/44412902,TMLS,2161154,N,Y,35.9304566,-79.0070864
PAST SALE,June-14-2018,Single Family Residential,95141 Vance Knl,Chapel Hill,NC,27517,689000,4,3.5,Governors Club,4053,11586,2017,708,170,252,Sold,,,http://www.redfin.com/NC/Chapel-Hill/95141-Vance-Knls-27517/unit-710/home/146824465,TMLS,2135676,N,Y,35.8441439,-79.0419801
PAST SALE,June-14-2017,Single Family Residential,95119 Vance Knl,Chapel Hill,NC,27517,689000,4,3.5,Vance Knoll,4053,11499,2017,1073,170,252,Sold,,,http://www.redfin.com/NC/Chapel-Hill/95119-Vance-Knls-27517/home/41381432,TMLS,2121252,N,Y,35.8429851,-79.0410003
PAST SALE,May-24-2017,Single Family Residential,109 Tweed Pl,Chapel Hill,NC,27517,650000,4,3.5,The Oaks,3315,18730,1994,1094,196,5,Sold,,,http://www.redfin.com/NC/Chapel-Hill/109-Tweed-Pl-27517/home/43549360,TMLS,2116439,N,Y,35.9204591,-79.0011716
PAST SALE,July-24-2017,Single Family Residential,505 Meadowmont Ln,Chapel Hill,NC,27517,950000,6,5.5,Meadowmont,4827,19166,2008,1033,197,40,Sold,,,http://www.redfin.com/NC/Chapel-Hill/505-Meadowmont-Ln-27517/home/44422806,TMLS,2132901,N,Y,35.9123924,-79.0082894
