SALE TYPE,SOLD DATE,PROPERTY TYPE,ADDRESS,CITY,STATE OR PROVINCE,ZIP OR POSTAL CODE,PRICE,BEDS,BATHS,LOCATION,SQUARE FEET,LOT SIZE,YEAR BUILT,DAYS ON MARKET,$/SQUARE FEET,HOA/MONTH,STATUS,NEXT OPEN HOUSE START TIME,NEXT OPEN HOUSE END TIME,URL (SEE http://www.redfin.com/buy-a-home/comparative-market-analysis FOR INFO ON PRICING),SOURCE,MLS#,FAVORITE,INTERESTED,LATITUDE,LONGITUDE
PAST SALE,October-19-2017,Single Family Residential,3708 St Marks Rd,Durham,NC,27707,639000,5,3.5,Hope Valley Country Club,4638,23653,1971,946,138,,Sold,,,http://www.redfin.com/NC/Durham/3708-St-Marks-Rd-27707/home/43551331,TMLS,2145394,N,Y,35.9496575,-78.9601335
PAST SALE,July-6-2017,Single Family Residential,12 Pilling Pl,Durham,NC,27707,750000,5,4.0,New Hope Valley,4595,29620,1989,1051,163,,Sold,,,http://www.redfin.com/NC/Durham/12-Pilling-Pl-27707/home/43548731,TMLS,2120548,N,Y,35.9484536,-78.9661865
PAST SALE,May-31-2017,Single Family Residential,3502 Westover Rd,Durham,NC,27707,675000,4,3.5,Hope Valley Country Club,3560,22215,1976,1087,190,,Sold,,,http://www.redfin.com/NC/Durham/3502-Westover-Rd-27707/home/43539487,TMLS,2109939,N,Y,35.9472371,-78.957501
PAST SALE,December-18-2017,Single Family Residential,3603 Hope Valley Rd,Durham,NC,27707,505000,4,3.0,Hope Valley,2851,57934,1951,886,177,,Sold,,,http://www.redfin.com/NC/Durham/3603-Hope-Valley-Rd-27707/home/43548577,TMLS,2154066,N,Y,35.9491391,-78.938702
PAST SALE,November-21-2017,Single Family Residential,4709 Marena Pl,Durham,NC,27707,409900,4,3.0,Marena Place,3092,11325,2007,913,133,,Sold,,,http://www.redfin.com/NC/Durham/4709-Marena-Pl-27707/home/43598084,TMLS,2143200,N,Y,35.931431,-78.9963319
PAST SALE,November-6-2017,Single Family Residential,2211 Chase St,Durham,NC,27707,750000,6,5.0,Forest Hills,5891,37156,1965,928,127,,Sold,,,http://www.redfin.com/NC/Durham/2211-Chase-St-27707/home/43527426,TMLS,2150195,N,Y,35.9737629,-78.9156929
PAST SALE,,Single Family Residential,8 Duxbury Ct,Durham,NC,27707,518500,4,4.5,,3452,31842,1988,,150,,,,,http://www.redfin.com/NC/Durham/8-Duxbury-Ct-27707/home/43548081,,,N,Y,35.9354303,-78.9682851
PAST SALE,August-9-2017,Single Family Residential,4526 Farrington Rd,Durham,NC,27707,455000,5,3.0,Enclave on Farrington,3141,16552,2014,1017,145,41,Sold,,,http://www.redfin.com/NC/Durham/4526-Farrington-Rd-27707/home/43608253,TMLS,2109291,N,Y,35.9359366,-78.9862427
PAST SALE,August-10-2017,Single Family Residential,3510 Westover Rd,Durham,NC,27707,562000,5,4.5,Hope Valley,4497,21344,1961,1016,125,,Sold,,,http://www.redfin.com/NC/Durham/3510-Westover-Rd-27707/home/43545358,TMLS,2101280,N,Y,35.9481655,-78.957575
PAST SALE,June-2-2017,Single Family Residential,4027 Swarthmore Rd,Durham,NC,27707,660000,4,3.5,Marydell Estates,3601,34412,1987,1085,183,,Sold,,,http://www.redfin.com/NC/Durham/4027-Swarthmore-Rd-27707/home/43545964,TMLS,2121250,N,Y,35.9335985,-78.9637124
PAST SALE,January-11-2018,Single Family Residential,59 Treviso Pl,Durham,NC,27707,895000,4,4.5,Maida Vale,3738,9583,2017,862,239,225,Sold,,,http://www.redfin.com/NC/Durham/59-Treviso-Pl-27707/home/43606815,TMLS,2135366,N,Y,35.9301699,-78.998931
PAST SALE,July-24-2017,Single Family Residential,32 Oak Dr,Durham,NC,27707-2132,635000,4,3.5,Forest Hills,3127,25264,1938,1033,203,,Sold,,,http://www.redfin.com/NC/Durham/32-Oak-Dr-27707/home/43530988,TMLS,2122190,N,Y,35.9801717,-78.9181056
PAST SALE,October-30-2017,Single Family Residential,3805 St Marks Rd,Durham,NC,27707,565000,4,3.5,Hope Valley,3618,24437,1971,935,156,,Sold,,,http://www.redfin.com/NC/Durham/3805-St-Marks-Rd-27707/home/43548815,TMLS,2152374,N,Y,35.9468326,-78.9590187
PAST SALE,June-29-2017,Single Family Residential,1705 Bivins St,Durham,NC,27701,580000,4,2.5,Lakewood,2311,8494,2017,1058,251,,Sold,,,http://www.redfin.com/NC/Durham/1705-Bivins-St-27707/home/43524533,TMLS,2117971,N,Y,35.9845865,-78.923233
PAST SALE,July-16-2017,Single Family Residential,1518 Hermitage Ct,Durham,NC,27707,568000,4,2.0,Forest Hills,2589,8712,1929,1041,219,,Sold,,,http://www.redfin.com/NC/Durham/1518-Hermitage-Ct-27707/home/43528927,TMLS,2133510,N,Y,35.9829463,-78.9155418
PAST SALE,June-28-2017,Single Family Residential,120 Strolling Way,Durham,NC,27707,400000,4,3.5,Everwood,3289,9147,2014,1059,122,54,Sold,,,http://www.redfin.com/NC/Durham/120-Strolling-Way-27707/home/43610899,TMLS,2129345,N,Y,35.9441538,-78.9714881
PAST SALE,,Single Family Residential,4008 Colville Rd,Durham,NC,27707,540000,4,4.5,,4880,25308,1986,,111,,,,,http://www.redfin.com/NC/Durham/4008-Colville-Rd-27707/home/43551201,,,N,Y,35.9492113,-78.9639333
PAST SALE,,Single Family Residential,21 Chancery Pl,Durham,NC,27707,588000,4,4.5,,5504,23087,1976,,107,,,,,http://www.redfin.com/NC/Durham/21-Chancery-Pl-27707/home/43548819,,,N,Y,35.9484399,-78.9596917
PAST SALE,August-31-2017,Single Family Residential,4005 Bristol Rd,Durham,NC,27707,1150000,5,5.5,Hope Valley Country Club,5139,48482,1955,995,224,,Sold,,,http://www.redfin.com/NC/Durham/4005-Bristol-Rd-27707/home/43548695,TMLS,2109634,N,Y,35.9400733,-78.9507349
PAST SALE,December-19-2017,Single Family Residential,3225 Surrey Rd,Durham,NC,27707,1265000,6,3.5,Hope Valley Country Club,3260,37722,1925,885,388,,Sold,,,http://www.redfin.com/NC/Durham/3225-Surrey-Rd-27707/home/43537008,TMLS,2074608,N,Y,35.9501835,-78.9526662
PAST SALE,September-12-2017,Single Family Residential,36 Surrey Ln,Durham,NC,27707,560000,4,3.0,Surrey Green,3440,35937,1987,983,163,54,Sold,,,http://www.redfin.com/NC/Durham/36-Surrey-Ln-27707/home/43544913,TMLS,2122668,N,Y,35.9459845,-78.9400278
PAST SALE,,Townhouse,3 Greenside Ct,Durham,NC,27707,525000,4,3.0,,3152,8843,1995,,167,,,,,http://www.redfin.com/NC/Durham/3-Greenside-Ct-27707/home/43544947,,,N,Y,35.944167,-78.938868
PAST SALE,June-29-2017,Single Family Residential,4324 Thetford Rd,Durham,NC,27707,500000,4,2.5,Marydell Estates,3224,21780,1988,1058,155,,Sold,,,http://www.redfin.com/NC/Durham/4324-Thetford-Rd-27707/home/43548051,TMLS,2127679,N,Y,35.936708,-78.9691466
PAST SALE,September-28-2017,Single Family Residential,4010 Tanager Trl,Durham,NC,27707,506750,5,3.0,Crescent of Hope Valley,3043,25700,2017,967,167,,Sold,,,http://www.redfin.com/NC/Durham/4010-Tanager-Trl-27707/home/43548673,TMLS,2128686,N,Y,35.936935,-78.944055
PAST SALE,March-19-2018,Single Family Residential,4044 Nottaway Rd,Durham,NC,27707,420000,4,4.0,Hope Valley,3778,31101,1961,795,111,,Sold,,,http://www.redfin.com/NC/Durham/4044-Nottaway-Rd-27707/home/43545161,TMLS,2169199,N,Y,35.9355597,-78.9543511
PAST SALE,June-7-2018,Single Family Residential,3413 Rugby Rd,Durham,NC,27707,525000,4,2.5,Hope Valley,2738,68389,1954,715,192,,Sold,,,http://www.redfin.com/NC/Durham/3413-Rugby-Rd-27707/home/43537190,TMLS,2178345,N,Y,35.9413224,-78.9554499
PAST SALE,February-22-2018,Single Family Residential,3546 Dixon Rd,Durham,NC,27707,495000,4,2.5,Hope Valley Country Club,2675,22128,2017,820,185,,Sold,,,http://www.redfin.com/NC/Durham/3546-Dixon-Rd-27707/home/143424550,TMLS,2147761,N,Y,35.953137,-78.9422354
PAST SALE,April-18-2018,Single Family Residential,5511 Weston Downs Dr,Durham,NC,27707,450000,4,3.0,Weston Downs,3260,8276,2009,765,138,55,Sold,,,http://www.redfin.com/NC/Durham/5511-Weston-Downs-Dr-27707/home/43609372,TMLS,2168768,N,Y,35.9320706,-78.99808
PAST SALE,May-18-2018,Single Family Residential,4212 Cobscook Dr,Durham,NC,27707,510000,4,2.5,Marydell Estates,3142,20908,1987,735,162,,Sold,,,http://www.redfin.com/NC/Durham/4212-Cobscook-Dr-27707/home/43548066,TMLS,2185936,N,Y,35.9341552,-78.969721
PAST SALE,June-29-2018,Single Family Residential,4110 Champaign Dr,Durham,NC,27707,730000,4,4.0,Hope Valley,4809,20473,1989,693,152,,Sold,,,http://www.redfin.com/NC/Durham/4110-Champaign-Dr-27707/home/43550248,TMLS,2171417,N,Y,35.9459414,-78.9658331
PAST SALE,February-23-2018,Single Family Residential,3940 Bristol Rd,Durham,NC,27707,465000,4,3.0,Hope Valley Country Club,2748,20386,1961,819,169,,Sold,,,http://www.redfin.com/NC/Durham/3940-Bristol-Rd-27707/home/43536481,TMLS,2157784,N,Y,35.943021,-78.9515615
PAST SALE,,Townhouse,11 Lytham Ln,Durham,NC,27707,498500,4,3.5,,2405,14941,1984,,207,,,,,http://www.redfin.com/NC/Durham/11-Lytham-Ln-27707/home/43545489,,,N,Y,35.9436003,-78.9381856
PAST SALE,April-16-2018,Single Family Residential,3925 St Marks Rd,Durham,NC,27707,415000,4,3.5,Hope Valley Country Club,2587,19079,1973,767,160,,Sold,,,http://www.redfin.com/NC/Durham/3925-St-Marks-Rd-27707/home/43548780,TMLS,2153821,N,Y,35.9441298,-78.9589847
PAST SALE,May-9-2018,Single Family Residential,3626 Hathaway Rd,Durham,NC,27707,765000,4,3.0,Durham,3750,35327,1967,744,204,,Sold,,,http://www.redfin.com/NC/Durham/3626-Hathaway-Rd-27707/home/43545534,TMLS,2197269,N,Y,35.947839,-78.9432538
PAST SALE,October-31-2017,Single Family Residential,9 Kimberly Dr,Durham,NC,27707,567500,5,3.5,Hope Valley Country Club,2812,31842,1964,934,202,,Sold,,,http://www.redfin.com/NC/Durham/9-Kimberly-Dr-27707/home/43545289,TMLS,2134434,N,Y,35.9383232,-78.9570909
PAST SALE,May-25-2018,Single Family Residential,4705 Dutchess Ln,Durham,NC,27707,425000,5,4.0,Prescott Place,3607,9583,2003,728,118,32,Sold,,,http://www.redfin.com/NC/Durham/4705-Dutchess-Ln-27707/home/43605960,TMLS,2182689,N,Y,35.93293,-78.9850942
PAST SALE,May-29-2018,Single Family Residential,1022 Homer St,Durham,NC,27707-1641,1100000,4,3.5,Forest Hills,4542,22215,1927,724,242,,Sold,,,http://www.redfin.com/NC/Durham/1022-Homer-St-27707/home/43530474,TMLS,2185293,N,Y,35.9836586,-78.917553
PAST SALE,December-5-2017,Single Family Residential,3730 Hope Valley Rd,Durham,NC,27707-5129,525000,4,2.5,Hope Valley,2441,21344,1927,899,215,,Sold,,,http://www.redfin.com/NC/Durham/3730-Hope-Valley-Rd-27707/home/43536652,TMLS,2149163,N,Y,35.9439887,-78.9437678
PAST SALE,June-9-2017,Single Family Residential,128 Chestnut St,Durham,NC,27707,408224,4,2.5,Hillside,2019,5749,2017,1078,202,,Sold,,,http://www.redfin.com/NC/Durham/128-Chestnut-St-27707/home/43532563,TMLS,2092722,N,Y,35.9863388,-78.9051864
PAST SALE,June-15-2017,Single Family Residential,2624 E Shoreham St,Durham,NC,27707,414903,4,2.5,Wingbrook,2164,10497,2017,1072,192,,Sold,,,http://www.redfin.com/NC/Durham/2624-E-Shoreham-St-27707/home/43523767,TMLS,2087747,N,Y,35.9707052,-78.92257
PAST SALE,,Single Family Residential,1615 Sycamore St Unit 8ST,Durham,NC,27707,565000,4,3.5,,2758,28967,2017,,205,,,,,http://www.redfin.com/NC/Durham/1615-Sycamore-St-27707/unit-8ST/home/43611011,,,N,Y,35.9784788,-78.9234982
PAST SALE,August-2-2017,Single Family Residential,4215 Champaign Dr,Durham,NC,27707,465000,4,3.5,New Hope Valley,3906,25874,1988,1024,119,,Sold,,,http://www.redfin.com/NC/Durham/4215-Champaign-Dr-27707/home/43548243,TMLS,2061590,N,Y,35.9455127,-78.9675561
PAST SALE,August-20-2017,Single Family Residential,3902 Darby Rd,Durham,NC,27707,639000,4,3.5,Hope Valley Country Club,3070,40075,1959,1006,208,,Sold,,,http://www.redfin.com/NC/Durham/3902-Darby-Rd-27707/home/43536962,TMLS,2140293,N,Y,35.9441239,-78.9543895
PAST SALE,July-28-2017,Single Family Residential,3918 Regent Rd,Durham,NC,27707-5312,1000000,4,4.0,Hope Valley Country Club,5494,111078,1970,1029,182,,Sold,,,http://www.redfin.com/NC/Durham/3918-Regent-Rd-27707/home/43545257,TMLS,2127465,N,Y,35.937995,-78.96199
PAST SALE,May-24-2017,Single Family Residential,26 Chancery Pl,Durham,NC,27707,410000,5,3.5,Hope Valley,3497,16509,1977,1094,117,,Sold,,,http://www.redfin.com/NC/Durham/26-Chancery-Pl-27707/home/43548778,TMLS,2116270,N,Y,35.9489032,-78.9592499
PAST SALE,September-22-2017,Single Family Residential,3202 Banbury Way,Durham,NC,27707,450000,5,4.5,Hope Valley Country Club,4239,38899,1971,973,106,,Sold,,,http://www.redfin.com/NC/Durham/3202-Banbury-Way-27707/home/43534333,TMLS,2139856,N,Y,35.9553427,-78.9493963
PAST SALE,January-16-2018,Single Family Residential,3636 Trail Twenty Three,Durham,NC,27707-5156,498175,4,2.5,Hope Valley,2863,20386,1986,857,174,,Sold,,,http://www.redfin.com/NC/Durham/3636-Trail-23-27707/home/43545532,TMLS,2162122,N,Y,35.9463741,-78.9406023
PAST SALE,June-26-2017,Single Family Residential,3928 Nottaway Rd,Durham,NC,27707,650000,4,3.0,Hope Valley Country Club,3296,33105,1961,1061,197,,Sold,,,http://www.redfin.com/NC/Durham/3928-Nottaway-Rd-27707/home/43594266,TMLS,2126289,N,Y,35.9374345,-78.9599789
PAST SALE,June-6-2018,Single Family Residential,3430 Dover Rd,Durham,NC,27707,1500000,5,8.5,Hope Valley Country Club,8953,108900,1948,716,168,,Sold,,,http://www.redfin.com/NC/Durham/3430-Dover-Rd-27707/home/43534286,TMLS,2075946,N,Y,35.9538762,-78.951701
PAST SALE,April-30-2018,Single Family Residential,2707 Bexley Ave,Durham,NC,27707,520000,4,3.5,Preston Woods,3731,30099,1959,753,139,,Sold,,,http://www.redfin.com/NC/Durham/2707-Bexley-Ave-27707/home/43536063,TMLS,2177306,N,Y,35.9664749,-78.9308352
PAST SALE,,Single Family Residential,2710 Augusta Dr,Durham,NC,27707,510000,4,2.0,,2350,13765,1953,,217,,,,,http://www.redfin.com/NC/Durham/2710-Augusta-Dr-27707/home/43523758,,,N,Y,35.9700505,-78.9249015
PAST SALE,,Single Family Residential,1708 Wallace St,Durham,NC,27707,430000,5,3.0,,2669,13460,1962,,161,,,,,http://www.redfin.com/NC/Durham/1708-Wallace-St-27707/home/43524156,,,N,Y,35.982166,-78.9238518
PAST SALE,August-10-2017,Single Family Residential,215 Kinsale Dr,Durham,NC,27517,510000,4,4.0,Blenheim Woods,2944,6621,2010,1016,173,44,Sold,,,http://www.redfin.com/NC/Chapel-Hill/215-Kinsale-Dr-27517/home/43610996,TMLS,2127646,N,Y,35.927427,-78.997777
PAST SALE,September-26-2019,Single Family Residential,2910 Buckingham Rd,Durham,NC,27707,468000,4,2.5,Hope Valley,2428,20691,1962,239,193,,Sold,,,http://www.redfin.com/NC/Durham/2910-Buckingham-Rd-27707/home/43545543,TMLS,2273277,N,Y,35.9515394,-78.9390425
PAST SALE,September-30-2019,Single Family Residential,2104 Chapel Hill Rd,Durham,NC,27707,429000,5,4.5,Durham,2713,9321,1947,235,158,,Sold,,,http://www.redfin.com/NC/Durham/2104-Chapel-Hill-Rd-27707/home/43526872,TMLS,2275362,N,Y,35.9857985,-78.9289237
PAST SALE,June-19-2019,Single Family Residential,4003 Marydell Ln,Durham,NC,27707-5704,410000,4,2.5,Marydell Estates,2313,20473,1998,338,177,8,Sold,,,http://www.redfin.com/NC/Durham/4003-Marydell-Ln-27707/home/43545995,TMLS,2248841,N,Y,35.9363111,-78.9630496
PAST SALE,June-19-2019,Single Family Residential,3827 Somerset Dr,Durham,NC,27707,675000,4,2.5,Hope Valley Country Club,2546,21518,1956,338,265,,Sold,,,http://www.redfin.com/NC/Durham/3827-Somerset-Dr-27707/home/43536969,TMLS,2250377,N,Y,35.9451631,-78.9574383
PAST SALE,June-27-2019,Single Family Residential,3617 Stratford Rd,Durham,NC,27707,535000,4,3.5,Hope Valley Country Club,3498,26484,1975,330,153,,Sold,,,http://www.redfin.com/NC/Durham/3617-Stratford-Rd-27707/home/43537012,TMLS,2248130,N,Y,35.9502153,-78.9552732
PAST SALE,April-8-2020,Single Family Residential,3523 Westover Rd,Durham,NC,27707,666500,5,4.5,Durham,3702,28749,1980,44,180,,Sold,,,http://www.redfin.com/NC/Durham/3523-Westover-Rd-27707/home/43546300,TMLS,2311021,N,Y,35.9491897,-78.9580348
PAST SALE,March-31-2020,Single Family Residential,1002 Crested Jay Dr Lot 91-Edison,Durham,NC,27707,473402,4,3.0,Durham,2641,12196,2020,52,179,55,Sold,,,http://www.redfin.com/NC/Durham/1002-Crested-Jay-DR-27707/unit-91-Edison/home/169222597,TMLS,2280990,N,Y,35.9596,-78.9439
PAST SALE,February-28-2020,Single Family Residential,3108 Dixon Rd,Durham,NC,27707,495000,4,3.5,Durham,2762,11761,2019,84,179,,Sold,,,http://www.redfin.com/NC/Durham/3108-Dixon-Rd-27707/home/169142225,TMLS,2279800,N,Y,35.9643697,-78.9403883
PAST SALE,February-28-2020,Single Family Residential,3321 Devon Rd,Durham,NC,27707,1330000,4,4.0,Hope Valley Country Club,4460,31798,1935,84,298,,Sold,,,http://www.redfin.com/NC/Durham/3321-Devon-Rd-27707/home/43537041,TMLS,2275992,N,Y,35.9522077,-78.9550081
PAST SALE,March-5-2020,Single Family Residential,1000 Crested Jay Dr Lot 90-Edison,Durham,NC,27707,475684,4,3.0,Durham,2641,10018,2020,78,180,55,Sold,,,http://www.redfin.com/NC/Durham/1000-Crested-Jay-DR-27707/unit-90-Edison/home/168684687,TMLS,2273842,N,Y,35.9596,-78.9439
PAST SALE,March-18-2020,Multi-Family (5+ Unit),4012 Dover Rd,Durham,NC,27707,1275000,5,4.0,Hope Valley Country Club,4591,123710,1999,65,278,,Sold,,,http://www.redfin.com/NC/Durham/4012-Dover-Rd-27707/home/43545635,TMLS,2309238,N,Y,35.9404342,-78.9461041
PAST SALE,July-10-2018,Single Family Residential,3541 Rugby Rd,Durham,NC,27707,570000,4,4.0,Durham,3300,52272,2009,682,173,,Sold,,,http://www.redfin.com/NC/Durham/3541-Rugby-Rd-27707/home/43597968,TMLS,2172241,N,Y,35.9356241,-78.9515615
PAST SALE,June-20-2019,Single Family Residential,3612 Dixon Rd Lot B,Durham,NC,27707,485784,4,3.0,Durham,2392,19166,2019,337,203,,Sold,,,http://www.redfin.com/NC/Durham/3612-Dixon-Rd-27707/home/148534138,TMLS,2228784,N,Y,35.9521916,-78.9423795
PAST SALE,September-3-2019,Single Family Residential,457 Martin Madden Way #10,Durham,NC,27707,1282823,4,5.0,Orange,4725,43560,2019,262,271,83,Sold,,,http://www.redfin.com/NC/Durham/457-Whitfield-Rd-27705/unit-10/home/165599693,TMLS,2253676,N,Y,35.9778,-79.0099
PAST SALE,June-7-2019,Single Family Residential,4807 Marena Pl,Durham,NC,27707,495000,4,3.5,Marena Place,3024,17424,2007,350,164,,Sold,,,http://www.redfin.com/NC/Durham/4807-Marena-Pl-27707/home/43597485,TMLS,2241881,N,Y,35.9304037,-78.9966446
PAST SALE,,Single Family Residential,3122 Surrey Rd,Durham,NC,27707,1467000,4,5.0,,5417,94482,1991,,271,,,,,http://www.redfin.com/NC/Durham/3122-Surrey-Rd-27707/home/43537002,,,N,Y,35.9505201,-78.9497277
PAST SALE,July-9-2018,Single Family Residential,1916 Bivins St,Durham,NC,27707,550000,4,3.5,Tuscaloosa Lakewood,2016,7143,2016,683,273,,Sold,,,http://www.redfin.com/NC/Durham/1916-Bivins-St-27707/home/146000149,TMLS,2196531,N,Y,35.9857209,-78.9272994
PAST SALE,January-18-2019,Single Family Residential,4703 Dutchess Ln,Durham,NC,27707,422000,5,3.0,Prescott Place,3050,9888,2002,490,138,32,Sold,,,http://www.redfin.com/NC/Durham/4703-Dutchess-Ln-27707/home/43603932,TMLS,2224354,N,Y,35.9330859,-78.9849617
PAST SALE,October-30-2018,Single Family Residential,7 Teahouse Ct,Durham,NC,27707,445000,4,3.0,Marena Place,2966,23565,2007,570,150,,Sold,,,http://www.redfin.com/NC/Durham/7-Teahouse-Ct-27707/home/43598231,TMLS,2213767,N,Y,35.9309532,-78.997815
PAST SALE,August-30-2019,Single Family Residential,3537 Cambridge Rd,Durham,NC,27707,1600000,7,6.5,Hope Valley West,6325,30056,2008,266,253,,Sold,,,http://www.redfin.com/NC/Durham/3537-Cambridge-Rd-27707/home/43539529,TMLS,2269574,N,Y,35.9524817,-78.9482252
PAST SALE,September-27-2019,Single Family Residential,1501 Sycamore St,Durham,NC,27707,715000,6,5.5,Long Meadow,5434,24916,1961,238,132,,Sold,,,http://www.redfin.com/NC/Durham/1501-Sycamore-St-27707/home/43527576,TMLS,2254058,N,Y,35.9783283,-78.9209787
PAST SALE,,Single Family Residential,3724 Bentley Dr,Durham,NC,27707,505000,4,2.5,,2933,21911,1987,,172,,,,,http://www.redfin.com/NC/Durham/3724-Bentley-Dr-27707/home/43547312,,,N,Y,35.9396895,-78.9625415
PAST SALE,January-12-2018,Single Family Residential,3902 St Marks Rd,Durham,NC,27707,560000,5,5.0,Hope Valley West,3725,16683,1972,861,150,,Sold,,,http://www.redfin.com/NC/Durham/3902-St-Marks-Rd-27707/home/43548765,TMLS,2162115,N,Y,35.9457747,-78.9594983
PAST SALE,May-15-2018,Townhouse,109 Cofield Cir,Durham,NC,27707-5473,465000,4,3.5,Weldon Downs,3075,3049,2010,738,151,275,Sold,,,http://www.redfin.com/NC/Durham/109-Cofield-Cir-27707/home/43610826,TMLS,2177222,N,Y,35.92763,-78.954122
PAST SALE,June-29-2018,Single Family Residential,4040 Nottaway Rd,Durham,NC,27707,515000,4,2.5,Hope Valley,2999,46173,1963,693,172,,Sold,,,http://www.redfin.com/NC/Durham/4040-Nottaway-Rd-27707/home/43547266,TMLS,2194045,N,Y,35.9352631,-78.9549197
PAST SALE,March-29-2018,Single Family Residential,4530 Farrington Rd,Durham,NC,27707,452000,5,3.0,Enclave on Farrington,3299,18295,2013,785,137,42,Sold,,,http://www.redfin.com/NC/Durham/4530-Farrington-Rd-27707/home/43608254,TMLS,2173192,N,Y,35.9351706,-78.986596
PAST SALE,February-28-2018,Single Family Residential,4128 Edenton Ln,Durham,NC,27707,574695,4,3.0,Woodbury Forest,2744,22215,2017,814,209,,Sold,,,http://www.redfin.com/NC/Durham/4128-Edenton-Ln-27707/home/43548646,TMLS,2122564,N,Y,35.93343,-78.973099
PAST SALE,April-12-2018,Single Family Residential,2608 Sarah Ave,Durham,NC,27707,507400,4,3.5,Tuscaloosa Lakewood,2001,7405,2018,771,254,,Sold,,,http://www.redfin.com/NC/Durham/2608-Sarah-Ave-27707/home/110076381,TMLS,2184955,N,Y,35.9779044,-78.9323037
PAST SALE,April-30-2018,Single Family Residential,1506 Rosedale Ave,Durham,NC,27707,485000,5,3.0,Durham,3900,20908,1962,753,124,,Sold,,,http://www.redfin.com/NC/Durham/1506-Rosedale-Ave-27707/home/43524154,TMLS,2174224,N,Y,35.9825414,-78.9230804
PAST SALE,June-26-2018,Multi-Family (5+ Unit),1927 Morehead Ave,Durham,NC,27707,895000,4,2.0,Durham,1680,20821,1961,696,533,,Sold,,,http://www.redfin.com/NC/Durham/1927-Morehead-Ave-27707/home/43523782,TMLS,2200311,N,Y,35.9921169,-78.9279493
PAST SALE,July-29-2019,Single Family Residential,3545 Hope Valley Rd,Durham,NC,27707,590000,4,4.5,Durham,3143,26571,1993,298,188,,Sold,,,http://www.redfin.com/NC/Durham/3545-Hope-Valley-Rd-27707/home/43545012,TMLS,2263354,N,Y,35.9496269,-78.9385252
PAST SALE,January-31-2019,Single Family Residential,1702 Bivins St,Durham,NC,27707,625000,4,3.0,Tuscaloosa Lakewood,2800,8973,2018,477,223,,Sold,,,http://www.redfin.com/NC/Durham/1702-Bivins-St-27707/home/43526941,TMLS,2224926,N,Y,35.985012,-78.9228969
PAST SALE,May-30-2019,Single Family Residential,3818 Darby Rd,Durham,NC,27707,860000,4,3.5,Hope Valley Country Club,4332,28314,1997,358,199,,Sold,,,http://www.redfin.com/NC/Durham/3818-Darby-Rd-27707/home/43539473,TMLS,2239078,N,Y,35.9455573,-78.9551185
PAST SALE,June-20-2019,Single Family Residential,4312 Brookshire Rd,Durham,NC,27707,585000,4,3.5,Marydell Estates,3632,21387,1987,337,161,,Sold,,,http://www.redfin.com/NC/Durham/4312-Brookshire-Rd-27707/home/43594585,TMLS,2250528,N,Y,35.9337114,-78.9690141
PAST SALE,,Single Family Residential,3207 Rugby Rd,Durham,NC,27707,1250000,5,6.0,,5594,23958,2018,,223,,,,,http://www.redfin.com/NC/Durham/3207-Rugby-Rd-27707/home/91482076,,,N,Y,35.9404475,-78.949871
PAST SALE,May-3-2018,Single Family Residential,2915 Buckingham Rd,Durham,NC,27707,480000,5,2.5,Hope Valley,3731,26571,1987,750,129,,Sold,,,http://www.redfin.com/NC/Durham/2915-Buckingham-Rd-27707/home/43545547,TMLS,2148170,N,Y,35.950921,-78.9395638
PAST SALE,June-19-2018,Single Family Residential,45 Birnham Ln,Durham,NC,27707,580000,5,3.5,Surrey Green,3683,22651,1985,703,157,54,Sold,,,http://www.redfin.com/NC/Durham/45-Birnham-Ln-27707/home/43548003,TMLS,2184592,N,Y,35.9497047,-78.9375529
PAST SALE,April-17-2018,Single Family Residential,3709 Northampton Rd,Durham,NC,27707,740000,4,3.5,Durham,3633,22215,1987,766,204,,Sold,,,http://www.redfin.com/NC/Durham/3709-Northampton-Rd-27707/home/43548348,TMLS,2176313,N,Y,35.9498925,-78.962895
PAST SALE,March-22-2019,Single Family Residential,5322 Weston Downs Dr,Durham,NC,27707,475000,5,4.0,Weston Downs,4300,10062,2013,427,110,57,Sold,,,http://www.redfin.com/NC/Durham/5322-Weston-Downs-Dr-27707/home/49676256,TMLS,2237044,N,Y,35.9308265,-78.9957613
PAST SALE,April-17-2019,Single Family Residential,3949 Plymouth Rd,Durham,NC,27707,1500000,4,5.5,Hope Valley Country Club,5374,31668,1947,401,279,,Sold,,,http://www.redfin.com/NC/Durham/3949-Plymouth-Rd-27707/home/43586428,TMLS,2249939,N,Y,35.9417661,-78.9493421
PAST SALE,July-25-2018,Single Family Residential,3306 Hope Valley Rd,Durham,NC,27707,509900,4,3.5,Hope Valley,2336,39334,1930,667,218,,Sold,,,http://www.redfin.com/NC/Durham/3306-Hope-Valley-Rd-27707/home/43539625,TMLS,2197843,N,Y,35.9613397,-78.9334428
PAST SALE,May-20-2019,Single Family Residential,3503 Winding Way,Durham,NC,27707,508000,4,3.5,Knollwood,2550,20908,1965,368,199,3,Sold,,,http://www.redfin.com/NC/Durham/3503-Winding-Way-27707/home/43545792,TMLS,2241977,N,Y,35.9531618,-78.9584987
PAST SALE,September-20-2018,Single Family Residential,4714 Myra Gln,Durham,NC,27707-2999,445000,5,3.0,Weston Downs,3702,10585,2013,610,120,57,Sold,,,http://www.redfin.com/NC/Durham/4714-Myra-Glen-Pl-27707/home/49676272,TMLS,2186602,N,Y,35.9340261,-78.9939945
PAST SALE,May-17-2019,Single Family Residential,3436 Dover Rd,Durham,NC,27707,1250000,4,3.5,Hope Valley Country Club,3933,38768,1925,371,318,,Sold,,,http://www.redfin.com/NC/Durham/3436-Dover-Rd-27707/home/43536301,TMLS,2243528,N,Y,35.9525224,-78.9516057
PAST SALE,July-26-2018,Single Family Residential,208 Pineview Rd,Durham,NC,27707,545000,5,5.0,Rockwood,4188,45041,1938,666,130,,Sold,,,http://www.redfin.com/NC/Durham/208-Pineview-Rd-27707/home/43533658,TMLS,2177515,N,Y,35.9734275,-78.9288021
PAST SALE,October-19-2018,Single Family Residential,4023 Bristol Dr,Durham,NC,27707,972000,5,5.5,Hope Valley Country Club,5415,89254,1957,581,180,,Sold,,,http://www.redfin.com/NC/Durham/4023-Bristol-Rd-27707/home/43545688,TMLS,2198601,N,Y,35.9374267,-78.9490207
PAST SALE,May-20-2019,Single Family Residential,4174 Hope Valley Rd,Durham,NC,27707-5458,568000,4,3.5,Durham,3054,43560,2017,368,186,,Sold,,,http://www.redfin.com/NC/Durham/4174-Hope-Valley-Rd-27707/home/43608521,TMLS,2237991,N,Y,35.9326768,-78.9519592
PAST SALE,July-26-2019,Single Family Residential,4620 Chicopee Trl,Durham,NC,27707,450000,5,3.5,Chicopee Hills,3000,28749,2018,301,150,,Sold,,,http://www.redfin.com/NC/Durham/4620-Chicopee-Trl-27707/home/43549504,TMLS,2263051,N,Y,35.937674,-78.982894
PAST SALE,August-10-2018,Single Family Residential,3744 St Marks Rd,Durham,NC,27707,485000,4,3.0,Hope Valley Country Club,3269,16422,1970,651,148,,Sold,,,http://www.redfin.com/NC/Durham/3744-St-Marks-Rd-27707/home/43548313,TMLS,2200593,N,Y,35.9473298,-78.9604088
PAST SALE,February-26-2019,Single Family Residential,909 Scout Dr,Durham,NC,27707,405000,4,2.5,Durham,1927,6098,2018,451,210,,Sold,,,http://www.redfin.com/NC/Durham/909-Scout-Dr-27707/home/43532551,TMLS,2210146,N,Y,35.9851949,-78.9048548
PAST SALE,April-15-2019,Single Family Residential,1405 Arnette Ave,Durham,NC,27707,649000,5,2.0,Forest Hills,2793,11282,1920,403,232,,Sold,,,http://www.redfin.com/NC/Durham/1405-Arnette-Ave-27707/home/43529059,TMLS,2244502,N,Y,35.9850068,-78.9142156
PAST SALE,September-12-2019,Single Family Residential,3918 Sterling Ridge Ln,Durham,NC,27707,675000,5,5.0,Carriage Hill,5025,32713,2000,253,134,21,Sold,,,http://www.redfin.com/NC/Durham/3918-Sterling-Ridge-Ln-27707/home/43586572,TMLS,2247466,N,Y,35.9397743,-78.9682188
PAST SALE,August-9-2019,Single Family Residential,3616 Dixon Rd Lot A,Durham,NC,27707,486785,4,3.0,Durham,2392,19166,2019,287,204,,Sold,,,http://www.redfin.com/NC/Durham/3616-Dixon-Rd-27707/home/148534147,TMLS,2228786,N,Y,35.9521889,-78.9423803
PAST SALE,August-28-2018,Single Family Residential,129 Chestnut St,Durham,NC,27707,487000,4,3.5,Durham,2265,7274,2018,633,215,,Sold,,,http://www.redfin.com/NC/Durham/129-Chestnut-St-27707/home/43536108,TMLS,2202586,N,Y,35.9860769,-78.9054185
PAST SALE,December-14-2017,Single Family Residential,1032 Sycamore St,Durham,NC,27707,422500,4,3.0,Forest Hills,2420,13503,1945,890,175,,Sold,,,http://www.redfin.com/NC/Durham/1032-Sycamore-St-27707/home/43532118,TMLS,2156359,N,Y,35.9786521,-78.9185918
PAST SALE,,Single Family Residential,4213 Thetford Rd,Durham,NC,27707,409000,4,3.5,,3019,20386,1988,,135,,,,,http://www.redfin.com/NC/Durham/4213-Thetford-Rd-27707/home/43547584,,,N,Y,35.9361897,-78.9662749
PAST SALE,June-3-2019,Single Family Residential,3712 Dover Rd,Durham,NC,27707,2600000,5,6.0,Hope Valley Country Club,8759,38332,1983,354,297,,Sold,,,http://www.redfin.com/NC/Durham/3712-Dover-Rd-27707/home/43540035,TMLS,2240581,N,Y,35.9461995,-78.9527545
PAST SALE,May-10-2019,Single Family Residential,4116 Colville Rd,Durham,NC,27707,532000,4,3.5,Hope Valley,3445,45738,1988,378,154,,Sold,,,http://www.redfin.com/NC/Durham/4116-Colville-Rd-27707/home/43548705,TMLS,2245024,N,Y,35.9496979,-78.9660098
PAST SALE,June-27-2019,Single Family Residential,3915 Wentworth Dr,Durham,NC,27707,650000,4,4.0,Durham,3971,20995,1980,330,164,,Sold,,,http://www.redfin.com/NC/Durham/3915-Wentworth-Dr-27707/home/43550287,TMLS,2252587,N,Y,35.9451245,-78.9604207
PAST SALE,July-18-2019,Single Family Residential,3816 Swarthmore Rd,Durham,NC,27707,426000,4,2.5,Amhurst,2512,30927,1963,309,170,,Sold,,,http://www.redfin.com/NC/Durham/3816-Swarthmore-Rd-27707/home/43548049,TMLS,2259549,N,Y,35.9343179,-78.9565104
PAST SALE,April-30-2019,Single Family Residential,3432 Dixon Dr,Durham,NC,27707,563615,4,3.5,Durham,2621,16552,2019,388,215,,Sold,,,http://www.redfin.com/NC/Durham/3432-Dixon-Rd-27707/home/147523009,TMLS,2218832,N,Y,35.9567228,-78.9400784
PAST SALE,June-24-2019,Single Family Residential,3608 Dixon Rd Lot C,Durham,NC,27707,483000,4,3.0,Durham,2392,19166,2019,333,202,,Sold,,,http://www.redfin.com/NC/Durham/3608-Dixon-Rd-27707/unit-C/home/148560306,TMLS,2231870,N,Y,35.9521224,-78.9419913
PAST SALE,November-22-2019,Single Family Residential,3415 Old Chapel Hill Rd,Durham,NC,27707,470000,4,2.5,Durham,2073,13503,2019,182,227,,Sold,,,http://www.redfin.com/NC/Durham/3415-Old-Chapel-Hill-Rd-27707/home/168189025,TMLS,2270676,N,Y,35.96012,-78.947147
PAST SALE,February-22-2019,Single Family Residential,4613 Myra Gln,Durham,NC,27707,412000,5,3.0,Weston Downs,3407,7884,2013,455,121,57,Sold,,,http://www.redfin.com/NC/Durham/4613-Myra-Glen-Pl-27707/home/49676299,TMLS,2216998,N,Y,35.9326216,-78.9949441
PAST SALE,October-17-2019,Single Family Residential,1937 Fireside Dr,Chapel Hill,NC,27517,445000,5,4.5,Colony Woods,2205,13416,1974,218,202,,Sold,,,http://www.redfin.com/NC/Chapel-Hill/1937-Fireside-Dr-27517/home/43549469,TMLS,2268894,N,Y,35.938307,-79.002902
PAST SALE,October-21-2019,Single Family Residential,4522 Farrington Rd,Durham,NC,27707,494000,4,3.5,Enclave on Farrington,3184,19166,2014,214,155,42,Sold,,,http://www.redfin.com/NC/Durham/4522-Farrington-Rd-27707/home/65111911,TMLS,2276758,N,Y,35.9356961,-78.9859079
PAST SALE,August-15-2019,Single Family Residential,1608 University Dr,Durham,NC,27707-1629,450000,4,2.5,Durham,2243,18208,1934,281,201,,Sold,,,http://www.redfin.com/NC/Durham/1608-University-Dr-27707/home/43529002,TMLS,2246701,N,Y,35.9822916,-78.9130221
PAST SALE,April-9-2020,Single Family Residential,2211 Wilshire Dr,Durham,NC,27707,680000,4,3.0,Forest Hills,3259,80586,1966,43,209,,Sold,,,http://www.redfin.com/NC/Durham/2211-Wilshire-Dr-27707/home/43524001,TMLS,2270014,N,Y,35.9738363,-78.9137447
PAST SALE,August-8-2019,Single Family Residential,3808 Churchill Cir,Durham,NC,27707,870000,4,4.5,Hope Valley Country Club,3473,31711,1956,288,251,,Sold,,,http://www.redfin.com/NC/Durham/3808-Churchill-Cir-27707/home/43538940,TMLS,2262653,N,Y,35.9456007,-78.9565516
PAST SALE,January-13-2020,Single Family Residential,3518 Westover Rd,Durham,NC,27707,1565000,5,6.0,Hope Valley,5837,24829,1961,130,268,,Sold,,,http://www.redfin.com/NC/Durham/3518-Westover-Rd-27707/home/43545356,TMLS,2258255,N,Y,35.9487039,-78.9573278
PAST SALE,March-17-2020,Single Family Residential,3900 Hope Valley Rd,Durham,NC,27707,762500,4,3.0,Hope Valley Country Club,3855,72875,1978,66,198,,Sold,,,http://www.redfin.com/NC/Durham/3900-Hope-Valley-Rd-27707/home/43548121,TMLS,2297472,N,Y,35.9403332,-78.9452424
PAST SALE,,Condo/Co-op,1718 Palmer St,Durham,NC,27707,4500000,,,,7716,,1993,,583,,,,,http://www.redfin.com/NC/Durham/1718-Palmer-St-27707/home/43526917,,,N,Y,35.9876069,-78.923174
PAST SALE,March-15-2019,Single Family Residential,1524 Hermitage Ct,Durham,NC,27707,825000,6,3.5,Forest Hills,4222,16857,1928,434,195,,Sold,,,http://www.redfin.com/NC/Durham/1524-Hermitage-Ct-27707/home/43529547,TMLS,2221191,N,Y,35.9822282,-78.9154976
PAST SALE,April-4-2019,Single Family Residential,10 Logging Trl,Durham,NC,27707,525000,4,4.0,Green Mill,3505,46173,1984,414,150,,Sold,,,http://www.redfin.com/NC/Durham/10-Logging-Trl-27707/home/43536409,TMLS,2237518,N,Y,35.956478,-78.9376413
PAST SALE,July-8-2019,Single Family Residential,2716 Augusta Dr,Durham,NC,27707,512000,5,3.0,Rockwood,2590,13939,1956,319,198,,Sold,,,http://www.redfin.com/NC/Durham/2716-Augusta-Dr-27707/home/43526263,TMLS,2252183,N,Y,35.9698004,-78.9254872
PAST SALE,August-7-2019,Single Family Residential,3232 Westover Rd,Durham,NC,27707,1175000,4,4.0,Hope Valley Country Club,4452,78103,1961,289,264,,Sold,,,http://www.redfin.com/NC/Durham/3232-Westover-Rd-27707/home/43537004,TMLS,2260345,N,Y,35.9470477,-78.9539697
PAST SALE,May-29-2019,Single Family Residential,24 Kimberly Dr,Durham,NC,27707,700000,4,4.5,Hope Valley,4246,75358,1965,359,165,,Sold,,,http://www.redfin.com/NC/Durham/24-Kimberly-Dr-27707/home/43545757,TMLS,2248668,N,Y,35.9372849,-78.9572983
PAST SALE,May-30-2019,Single Family Residential,5 Kimberly Dr,Durham,NC,27707,850000,4,3.5,Hope Valley Country Club,4372,18948,1999,358,194,,Sold,,,http://www.redfin.com/NC/Durham/5-Kimberly-Dr-27707/home/43547299,TMLS,2249695,N,Y,35.9388007,-78.9572615
PAST SALE,June-10-2019,Single Family Residential,15 Pilling Pl,Durham,NC,27707,899000,4,3.0,Hope Valley Country Club,3757,20691,1987,347,239,,Sold,,,http://www.redfin.com/NC/Durham/15-Pilling-Pl-27707/home/43548715,TMLS,2246380,N,Y,35.9478857,-78.9664074
PAST SALE,June-17-2019,Single Family Residential,3930 St Marks Rd,Durham,NC,27707,589000,4,2.5,Hope Valley Country Club,2641,18295,1972,340,223,,Sold,,,http://www.redfin.com/NC/Durham/3930-St-Marks-Rd-27707/home/43548308,TMLS,2249332,N,Y,35.9441113,-78.9596917
PAST SALE,June-21-2019,Single Family Residential,3310 Westover Rd,Durham,NC,27707,1187500,5,5.0,Hope Valley Country Club,4675,20037,2007,336,254,,Sold,,,http://www.redfin.com/NC/Durham/3310-Westover-Rd-27707/home/43590640,TMLS,2246761,N,Y,35.9469293,-78.9551848
PAST SALE,June-24-2019,Single Family Residential,3825 Somerset Dr,Durham,NC,27707,478000,4,3.0,Hope Valley Country Club,2893,22564,1962,333,165,,Sold,,,http://www.redfin.com/NC/Durham/3825-Somerset-Dr-27707/home/43536965,TMLS,2251023,N,Y,35.9454573,-78.9574383
PAST SALE,July-2-2019,Single Family Residential,11 Pilling Pl,Durham,NC,27707,875000,5,4.5,Hope Valley,4813,27094,1986,325,182,,Sold,,,http://www.redfin.com/NC/Durham/11-Pilling-Pl-27707/home/43548716,TMLS,2247650,N,Y,35.9477511,-78.9660756
PAST SALE,July-10-2019,Single Family Residential,3940 Plymouth Rd,Durham,NC,27707,1735000,5,5.0,Hope Valley Country Club,5439,30927,1998,317,319,,Sold,,,http://www.redfin.com/NC/Durham/3940-Plymouth-Rd-27707/home/43593628,TMLS,2240760,N,Y,35.94205,-78.9501332
PAST SALE,,Single Family Residential,3412 Westover Rd,Durham,NC,27707,1550000,4,4.5,,3856,43952,1954,,402,,,,,http://www.redfin.com/NC/Durham/3412-Westover-Rd-27707/home/43538970,,,N,Y,35.9470256,-78.957129
PAST SALE,November-7-2019,Single Family Residential,3112 Dixon Rd,Durham,NC,27707,495000,4,3.5,Durham,2698,10890,2019,197,183,,Sold,,,http://www.redfin.com/NC/Durham/3112-Dixon-Rd-27707/home/169139472,TMLS,2279727,N,Y,35.9640928,-78.940401
PAST SALE,December-4-2019,Single Family Residential,4215 Amesbury Ln,Durham,NC,27707,780000,5,4.0,Marydell Estates,5028,23958,1992,170,155,,Sold,,,http://www.redfin.com/NC/Durham/4215-Amesbury-Ln-27707/home/43548653,TMLS,2282135,N,Y,35.9341618,-78.9670701
PAST SALE,,Single Family Residential,24 Lytham Ln,Durham,NC,27707,1165000,4,3.5,,4600,34456,2003,,253,,,,,http://www.redfin.com/NC/Durham/24-Lytham-Ln-27707/home/43548142,,,N,Y,35.9424821,-78.9389671
PAST SALE,May-7-2020,Single Family Residential,100 Ashworth Dr,Durham,NC,27707,500000,5,3.5,Ashworth Estates,3300,33105,2001,15,152,,Sold,,,http://www.redfin.com/NC/Durham/100-Ashworth-Dr-27707/home/43551188,TMLS,2306114,N,Y,35.9442292,-78.9682188
PAST SALE,May-8-2020,Single Family Residential,3802 Northampton Rd,Durham,NC,27707,1100000,5,4.0,Hope Valley,5144,53273,1986,14,214,,Sold,,,http://www.redfin.com/NC/Durham/3802-Northampton-Rd-27707/home/43548758,TMLS,2308855,N,Y,35.9485062,-78.9635798
PAST SALE,May-30-2019,Single Family Residential,3901 Darby Rd,Durham,NC,27707-5006,715000,5,3.5,Hope Valley Country Club,3778,25090,1985,358,189,,Sold,,,http://www.redfin.com/NC/Durham/3901-Darby-Rd-27707/home/43537520,TMLS,2245393,N,Y,35.9446274,-78.9539223
PAST SALE,March-11-2019,Single Family Residential,3902 Regent Rd,Durham,NC,27707,920000,5,4.5,Hope Valley Country Club,4826,44082,1973,438,191,,Sold,,,http://www.redfin.com/NC/Durham/3902-Regent-Rd-27707/home/43545259,TMLS,2176231,N,Y,35.938462,-78.9617683
PAST SALE,June-28-2019,Single Family Residential,3605 St Marks Rd,Durham,NC,27707,559629,4,3.0,Hope Valley Country Club,2712,25351,1968,329,206,,Sold,,,http://www.redfin.com/NC/Durham/3605-St-Marks-Rd-27707/home/43548829,TMLS,2256930,N,Y,35.9496195,-78.9581985
PAST SALE,October-7-2019,Single Family Residential,4605 Dutchess Ln,Durham,NC,27707,406000,4,2.5,Prescott Place,2746,9583,2002,228,148,32,Sold,,,http://www.redfin.com/NC/Durham/4605-Dutchess-Ln-27707/home/43604972,TMLS,2272883,N,Y,35.9337269,-78.9841666
PAST SALE,June-25-2019,Single Family Residential,4602 Myra Gln,Durham,NC,27707,480000,5,3.5,Weston Downs,3792,11456,2013,332,127,57,Sold,,,http://www.redfin.com/NC/Durham/4602-Myra-Glen-Pl-27707/home/49676250,TMLS,2250533,N,Y,35.9320141,-78.9949662
PAST SALE,,Single Family Residential,2725 Stuart Dr,Durham,NC,27707,512000,4,4.0,,4077,25439,1942,,126,,,,,http://www.redfin.com/NC/Durham/2725-Stuart-Dr-27707/home/43526769,,,N,Y,35.970077,-78.926529
PAST SALE,August-30-2019,Single Family Residential,3522 Sheridan Dr,Durham,NC,27707,490000,4,3.0,Durham,2924,32974,1974,266,168,,Sold,,,http://www.redfin.com/NC/Durham/3522-Sheridan-Dr-27707/home/146788877,TMLS,2269099,N,Y,35.9526201,-78.9386454
PAST SALE,March-19-2019,Single Family Residential,3735 Bentley Dr,Durham,NC,27707,920000,6,3.5,Hope Valley Country Club,4859,33584,1993,430,189,,Sold,,,http://www.redfin.com/NC/Durham/3735-Bentley-Dr-27707/home/43546767,TMLS,2231745,N,Y,35.9403531,-78.9635798
PAST SALE,December-6-2018,Single Family Residential,3434 Rugby Rd,Durham,NC,27707,1130000,4,3.5,Hope Valley Country Club,4667,38332,2006,533,242,,Sold,,,http://www.redfin.com/NC/Durham/3434-Rugby-Rd-27707/home/43547290,TMLS,2171754,N,Y,35.9388965,-78.9567092
PAST SALE,May-1-2019,Single Family Residential,3934 Wentworth Dr,Durham,NC,27707,560000,4,2.5,Durham,3350,15507,1977,387,167,,Sold,,,http://www.redfin.com/NC/Durham/3934-Wentworth-Dr-27707/home/43548291,TMLS,2246998,N,Y,35.9439185,-78.9612381
PAST SALE,October-15-2018,Single Family Residential,2206 Wilshire Dr,Durham,NC,27707-2245,630000,4,2.5,Forest Hills,2468,38768,1978,585,255,,Sold,,,http://www.redfin.com/NC/Durham/2206-Wilshire-Dr-27707/home/43524000,TMLS,2212337,N,Y,35.9738711,-78.9146135
PAST SALE,February-4-2019,Single Family Residential,2207 Arrington St,Durham,NC,27707,570000,4,4.0,Forest Hills,3819,21780,1965,473,149,,Sold,,,http://www.redfin.com/NC/Durham/2207-Arrington-St-27707/home/43526089,TMLS,2226678,N,Y,35.9752481,-78.9183487
PAST SALE,January-29-2020,Single Family Residential,1121 Crested Jay Dr Lot 77-Edison,Durham,NC,27707,517477,4,3.0,Durham,2641,11325,2019,114,196,55,Sold,,,http://www.redfin.com/NC/Durham/1121-Crested-Jay-DR-27707/unit-77-Edison/home/167228594,TMLS,2266442,N,Y,35.9596,-78.9439
PAST SALE,January-23-2020,Single Family Residential,3843 Somerset Dr,Durham,NC,27707,730000,5,4.5,Hope Valley,3792,37984,1957,120,193,,Sold,,,http://www.redfin.com/NC/Durham/3843-Somerset-Dr-27707/home/43540012,TMLS,2256040,N,Y,35.9435837,-78.9553616
PAST SALE,February-14-2020,Single Family Residential,3426 Dixon Rd,Durham,NC,27707,580250,4,2.5,Durham,2730,17424,2019,98,213,,Sold,,,http://www.redfin.com/NC/Durham/3426-Dixon-Rd-27707/home/147927731,TMLS,2282196,N,Y,35.9567772,-78.9400286
PAST SALE,February-26-2020,Single Family Residential,2710 Surrey Green Ln,Durham,NC,27707,630000,5,5.5,Durham,4725,52838,1974,86,133,,Sold,,,http://www.redfin.com/NC/Durham/2710-Surrey-Green-Ln-27707/home/43593546,TMLS,2294733,N,Y,35.9465873,-78.9410884
PAST SALE,December-12-2019,Single Family Residential,3915 Sterling Ridge Ln,Durham,NC,27707,475000,4,2.5,Carriage Hill,3277,16552,2002,162,145,21,Sold,,,http://www.redfin.com/NC/Durham/3915-Sterling-Ridge-Ln-27707/home/43587127,TMLS,2279678,N,Y,35.9400707,-78.9673352
PAST SALE,January-6-2020,Single Family Residential,4503 Sun Valley Dr,Durham,NC,27707,410000,4,2.5,Hope Valley Green,3075,11412,1999,137,133,6,Sold,,,http://www.redfin.com/NC/Durham/4503-Sun-Valley-Dr-27707/home/43544775,TMLS,2286746,N,Y,35.9271785,-78.9556709
PAST SALE,April-13-2020,Single Family Residential,27 Oak Dr,Durham,NC,27707,856100,4,4.5,Forest Hills,3958,31101,1925,39,216,,Sold,,,http://www.redfin.com/NC/Durham/27-Oak-Dr-27707/home/43529665,TMLS,2304492,N,Y,35.9791397,-78.9178514
PAST SALE,February-25-2020,Single Family Residential,3411 Dover Rd,Durham,NC,27707,999900,5,3.5,Hope Valley Country Club,4245,21780,1983,87,236,,Sold,,,http://www.redfin.com/NC/Durham/3411-Dover-Rd-27707/home/43535790,TMLS,2274347,N,Y,35.9554929,-78.9507882
PAST SALE,April-17-2020,Single Family Residential,4300 Thetford Rd,Durham,NC,27707,696500,4,4.5,Marydell Estates,3858,20037,1993,35,181,,Sold,,,http://www.redfin.com/NC/Durham/4300-Thetford-Rd-27707/home/43546050,TMLS,2303181,N,Y,35.9366796,-78.967026
PAST SALE,June-15-2018,Single Family Residential,608 E Forest Hills Blvd,Durham,NC,27707,718000,5,3.0,Forest Hills,3010,15550,2004,707,239,,Sold,,,http://www.redfin.com/NC/Durham/608-E-Forest-Hills-Blvd-27707/home/43594981,TMLS,2189261,N,Y,35.980875,-78.910215
PAST SALE,June-28-2018,Single Family Residential,4108 Amesbury Ln,Durham,NC,27707,590000,5,4.5,Marydell Estates,4017,19994,1991,694,147,,Sold,,,http://www.redfin.com/NC/Durham/4108-Amesbury-Ln-27707/home/43546033,TMLS,2176864,N,Y,35.9358895,-78.9653029
PAST SALE,January-22-2019,Single Family Residential,114 Bond St,Durham,NC,27707,426400,4,2.5,Durham,2075,6534,2018,486,205,,Sold,,,http://www.redfin.com/NC/Durham/114-Bond-St-27707/home/43532581,TMLS,2170035,N,Y,35.980837,-78.906205
PAST SALE,December-11-2018,Single Family Residential,3303 Surrey Rd,Durham,NC,27707,1010000,4,3.0,Hope Valley,4162,29707,1929,528,243,,Sold,,,http://www.redfin.com/NC/Durham/3303-Surrey-Rd-27707/home/43537007,TMLS,2189015,N,Y,35.9508723,-78.9546546
PAST SALE,August-3-2018,Single Family Residential,4310 Swarthmore Rd,Durham,NC,27707,472000,4,2.5,Marydell Estates,3100,19994,1987,658,152,,Sold,,,http://www.redfin.com/NC/Durham/4310-Swarthmore-Rd-27707/home/43545617,TMLS,2187903,N,Y,35.9322916,-78.9686606
PAST SALE,January-11-2019,Single Family Residential,203 Strolling Way,Durham,NC,27707,425000,4,3.5,Everwood,3209,7143,2008,497,132,54,Sold,,,http://www.redfin.com/NC/Durham/203-Strolling-Way-27707/home/43609954,TMLS,2224855,N,Y,35.9432411,-78.9709359
PAST SALE,April-26-2018,Single Family Residential,5301 Weston Downs Dr,Durham,NC,27707,430000,5,3.0,Weston Downs,3432,11761,2013,757,125,55,Sold,,,http://www.redfin.com/NC/Durham/5301-Weston-Downs-Dr-27707/home/49676249,TMLS,2140614,N,Y,35.9318054,-78.9952092
PAST SALE,September-5-2018,Single Family Residential,57 Kimberly Dr,Durham,NC,27707,401000,4,3.0,Hope Valley Country Club,2790,31624,1968,625,144,,Sold,,,http://www.redfin.com/NC/Durham/57-Kimberly-Dr-27707/home/43545678,TMLS,2184105,N,Y,35.9372406,-78.954036
PAST SALE,October-12-2018,Single Family Residential,3901 Wentworth Dr,Durham,NC,27707,480000,4,3.0,Hope Valley,2905,16183,1977,588,165,,Sold,,,http://www.redfin.com/NC/Durham/3901-Wentworth-Dr-27707/home/43550835,TMLS,2206943,N,Y,35.9458509,-78.9602138
PAST SALE,December-20-2018,Single Family Residential,475 Martin Madden Way,Durham,NC,27707,1378298,4,4.5,Orange,4415,44866,2018,519,312,83,Sold,,,http://www.redfin.com/NC/Chapel-Hill/Martin-Madden-Way-27707/home/148393990,TMLS,2164782,N,Y,35.977485,-79.010938
PAST SALE,October-25-2019,Single Family Residential,10 Belgrave Pl,Durham,NC,27707,490000,4,3.5,Parkside,2978,15681,1988,210,165,,Sold,,,http://www.redfin.com/NC/Durham/10-Belgrave-Pl-27707/home/43523530,TMLS,2278594,N,Y,35.972396,-78.9166662
PAST SALE,April-17-2019,Single Family Residential,1121 Anderson St,Durham,NC,27705,863000,4,3.5,Duke Forest,3962,28314,1952,401,218,,Sold,,,http://www.redfin.com/NC/Durham/1121-Anderson-St-27705/home/43524302,TMLS,2216802,N,Y,35.988597,-78.932479
PAST SALE,July-18-2018,Single Family Residential,24 Pennington Pl,Durham,NC,27707,745000,4,4.5,The Valley,6473,5401,2003,674,115,230,Sold,,,http://www.redfin.com/NC/Durham/24-Pennington-Pl-27707/home/43533350,TMLS,2183097,N,Y,35.960054,-78.952622
PAST SALE,July-20-2018,Single Family Residential,4901 Whitfield Rd,Durham,NC,27707,935000,4,3.0,Orange,3259,204732,1971,672,287,,Sold,,,http://www.redfin.com/NC/Durham/4901-Whitfield-Rd-27707/home/44405921,TMLS,2196184,N,Y,35.9757125,-79.0119473
PAST SALE,May-14-2018,Single Family Residential,115 W Woodridge Dr,Durham,NC,27707,790000,4,3.5,Rockwood,3251,36024,1932,739,243,,Sold,,,http://www.redfin.com/NC/Durham/115-W-Woodridge-Dr-27707/home/43535109,TMLS,2176029,N,Y,35.9728701,-78.9269661
PAST SALE,January-21-2020,Single Family Residential,3 Teahouse Ct,Durham,NC,27707,470500,4,3.5,Marena Place,3267,12196,2007,122,144,,Sold,,,http://www.redfin.com/NC/Durham/3-Teahouse-Ct-27707/home/43600661,TMLS,2285675,N,Y,35.9309662,-78.9972617
PAST SALE,May-31-2018,Single Family Residential,4711 Marena Pl,Durham,NC,27707,428000,4,3.5,Marena Place,3110,11325,2007,722,138,,Sold,,,http://www.redfin.com/NC/Durham/4711-Marena-Pl-27707/home/43603119,TMLS,2170628,N,Y,35.9312199,-78.9963796
PAST SALE,,Multi-Family (2-4 Unit),2505 Vesson Ave,Durham,NC,27707,410000,6,7.5,,3264,10454,2001,,126,,,,,http://www.redfin.com/NC/Durham/2505-Vesson-Ave-27707/home/43588837,,,N,Y,35.9825703,-78.9336072
PAST SALE,February-20-2019,Single Family Residential,4806 Timberly Dr,Durham,NC,27707,729000,4,4.0,Timbercrest,3129,182080,1967,457,233,,Sold,,,http://www.redfin.com/NC/Durham/4806-Timberly-Dr-27707/home/44426129,TMLS,2231063,N,Y,35.9725494,-79.0131838
PAST SALE,November-19-2018,Single Family Residential,4104 Cricket Ln,Durham,NC,27707,950500,4,5.0,New Hope Valley,4883,26092,1992,550,195,,Sold,,,http://www.redfin.com/NC/Durham/4104-Cricket-Ln-27707/home/43550238,TMLS,2194051,N,Y,35.9448474,-78.9637786
PAST SALE,February-1-2019,Single Family Residential,3229 Stanford Dr,Durham,NC,27707,472320,4,2.5,Durham,2710,11238,2018,476,174,,Sold,,,http://www.redfin.com/NC/Durham/3229-Stanford-Dr-27707/home/43536159,TMLS,2183282,N,Y,35.963145,-78.93492
PAST SALE,November-30-2018,Single Family Residential,1311 Arnette Ave,Durham,NC,27707-1601,610000,5,3.0,Forest Hills,4633,15550,1938,539,132,,Sold,,,http://www.redfin.com/NC/Durham/1311-Arnette-Ave-27707/home/43529047,TMLS,2216943,N,Y,35.986422,-78.914072
PAST SALE,September-5-2018,Single Family Residential,2507 Bexley Ave,Durham,NC,27707,715000,4,3.5,Hope Valley,3246,14810,2018,625,220,,Sold,,,http://www.redfin.com/NC/Durham/2507-Bexley-Ave-27707/home/43536027,TMLS,2184480,N,Y,35.967061,-78.9254
PAST SALE,October-31-2019,Single Family Residential,3533 Rugby Rd,Durham,NC,27707,850000,4,3.5,Durham,2557,55321,2019,204,332,,Sold,,,http://www.redfin.com/NC/Durham/3533-Rugby-Rd-27707/home/144907895,TMLS,2280850,N,Y,35.9368449,-78.9517465
PAST SALE,November-7-2019,Single Family Residential,114 Ashworth Dr,Durham,NC,27707,490000,4,3.5,Ashworth Estates,3311,21780,1998,197,148,,Sold,,,http://www.redfin.com/NC/Durham/114-Ashworth-Dr-27707/home/43549190,TMLS,2278679,N,Y,35.943555,-78.9697872
PAST SALE,November-7-2019,Single Family Residential,3714 Eton Rd,Durham,NC,27707,630000,5,3.5,Hope Valley Country Club,3900,18556,1977,197,162,,Sold,,,http://www.redfin.com/NC/Durham/3714-Eton-Rd-27707/home/43537518,TMLS,2257037,N,Y,35.9447983,-78.9535057
PAST SALE,November-14-2019,Single Family Residential,2328 Huron St,Durham,NC,27707,420000,5,3.0,Wa Wa Yanda,1748,13503,1950,190,240,,Sold,,,http://www.redfin.com/NC/Durham/2328-Huron-St-27707/home/43522603,TMLS,2281838,N,Y,35.9807963,-78.930349
PAST SALE,January-17-2020,Single Family Residential,2412 Alpine Rd,Durham,NC,27707,428000,4,3.0,Idlewood,2842,20037,1963,126,151,,Sold,,,http://www.redfin.com/NC/Durham/2412-Alpine-Rd-27707/home/43537644,TMLS,2289596,N,Y,35.9602291,-78.9341499
PAST SALE,April-14-2020,Single Family Residential,3111 Buckingham Rd,Durham,NC,27707,665000,4,3.5,Hope Valley Country Club,3618,20037,1988,38,184,,Sold,,,http://www.redfin.com/NC/Durham/3111-Buckingham-Rd-27707/home/43539169,TMLS,2277425,N,Y,35.9510078,-78.9459274
PAST SALE,May-14-2020,Single Family Residential,4306 Thetford Rd,Durham,NC,27707,568000,5,3.5,Marydell Estates,3606,20037,1990,8,158,,Sold,,,http://www.redfin.com/NC/Durham/4306-Thetford-Rd-27707/home/43548063,TMLS,2307062,N,Y,35.9367031,-78.9677329
PAST SALE,April-16-2020,Single Family Residential,63 Treviso Pl,Durham,NC,27707,665000,4,4.5,Maida Vale,3611,6403,2017,36,184,225,Sold,,,http://www.redfin.com/NC/Durham/63-Treviso-Pl-27707/home/43603273,TMLS,2299353,N,Y,35.930072,-78.9987425
PAST SALE,May-22-2020,Single Family Residential,3416 Cottonwood Dr,Durham,NC,27707-2426,405400,4,2.5,Garrett Farms,2928,19863,1988,1,138,54,Sold,,,http://www.redfin.com/NC/Durham/3416-Cottonwood-Dr-27707/home/43548567,TMLS,2301242,N,Y,35.9699746,-78.9785123
PAST SALE,February-20-2018,Single Family Residential,1114 Cornell St,Durham,NC,27707,545000,4,2.5,Lyon Park,3140,7710,2017,822,174,,Sold,,,http://www.redfin.com/NC/Durham/1114-Cornell-St-27707/home/43528844,TMLS,2127247,N,Y,35.9883976,-78.9196195
PAST SALE,December-20-2019,Single Family Residential,4034 King Charles Rd,Durham,NC,27707,567000,4,3.5,North Hampton Hills,3599,20037,2019,154,158,,Sold,,,http://www.redfin.com/NC/Durham/4034-King-Charles-Rd-27707/home/43547868,TMLS,2271847,N,Y,35.926845,-78.963796
PAST SALE,December-16-2019,Single Family Residential,3519 Meadowrun Dr,Durham,NC,27707,405000,4,2.5,Hope Valley Green,2801,15028,1998,158,145,6,Sold,,,http://www.redfin.com/NC/Durham/3519-Meadowrun-Dr-27707/home/43544814,TMLS,2284969,N,Y,35.9287584,-78.955936
PAST SALE,December-19-2019,Single Family Residential,6001 Woodberry Rd,Durham,NC,27707,485000,4,3.5,Woodberry Forest,2838,21780,1992,155,171,,Sold,,,http://www.redfin.com/NC/Durham/6001-Woodberry-Rd-27707/home/43549118,TMLS,2286240,N,Y,35.9327157,-78.9705162
PAST SALE,March-2-2020,Single Family Residential,5803 Woodberry Rd,Durham,NC,27707,565000,5,3.5,Woodberry Forest,3025,28967,2019,81,187,,Sold,,,http://www.redfin.com/NC/Durham/5803-Woodberry-Rd-27707/home/43549108,TMLS,2219612,N,Y,35.9361109,-78.970346
PAST SALE,April-28-2020,Single Family Residential,2203 Crested Jay Dr Lot 20-Carey,Durham,NC,27707,526320,4,3.5,Durham,2638,10454,2020,24,200,55,Sold,,,http://www.redfin.com/NC/Durham/2203-Crested-Jay-DR-27707/unit-20-Carey/home/170051664,TMLS,2292225,N,Y,35.9595,-78.944
PAST SALE,December-6-2019,Single Family Residential,1412 James St,Durham,NC,27707,568000,4,3.5,Tuscaloosa Lakewood,2321,7579,2013,168,245,,Sold,,,http://www.redfin.com/NC/Durham/1412-James-St-27707/home/49676714,TMLS,2284691,N,Y,35.985745,-78.9257524
PAST SALE,December-19-2019,Single Family Residential,42 Cheswick Pl,Durham,NC,27707,450000,4,3.5,The Valley,3272,5401,1997,155,138,230,Sold,,,http://www.redfin.com/NC/Durham/42-Cheswick-Pl-27707/home/43533809,TMLS,2279929,N,Y,35.9574362,-78.9528364
PAST SALE,April-16-2020,Single Family Residential,4500 Marena Pl,Durham,NC,27707,401128,4,2.5,Weston Downs,2490,8102,2013,36,161,62,Sold,,,http://www.redfin.com/NC/Durham/4500-Marena-Pl-27707/home/49676260,TMLS,2305772,N,Y,35.934143,-78.9950325
PAST SALE,March-3-2020,Single Family Residential,7108 Kobold Ln,Durham,NC,27707,826260,4,3.5,Timbercrest,3579,107593,2019,80,231,,Sold,,,http://www.redfin.com/NC/Durham/7108-Kobold-Ln-27707/home/52855631,TMLS,2271054,N,Y,35.9702648,-79.0094197
PAST SALE,August-20-2018,Single Family Residential,110 Ashworth Dr,Durham,NC,27707-6503,410000,4,2.5,Ashworth Estates,2605,20952,1997,641,157,,Sold,,,http://www.redfin.com/NC/Durham/110-Ashworth-Dr-27707/home/43551191,TMLS,2204071,N,Y,35.9437216,-78.9695442
PAST SALE,July-5-2018,Single Family Residential,4113 Swarthmore Rd,Durham,NC,27707,660000,4,2.5,Marydell Estates,3675,22651,1988,687,180,,Sold,,,http://www.redfin.com/NC/Durham/4113-Swarthmore-Rd-27707/home/43545982,TMLS,2178932,N,Y,35.9333687,-78.9648611
PAST SALE,May-20-2020,Single Family Residential,234 Pineview Rd,Durham,NC,27707,440000,4,2.5,Tuscaloosa,2322,13416,2018,2,189,,Sold,,,http://www.redfin.com/NC/Durham/234-Pineview-Rd-27707/home/43533664,TMLS,2281397,N,Y,35.973141,-78.93163
PAST SALE,April-30-2020,Single Family Residential,1122 Crested Jay Dr Lot 18-Edison,Durham,NC,27707,592376,4,3.0,Durham,3121,10890,2020,22,190,55,Sold,,,http://www.redfin.com/NC/Durham/1122-Crested-Jay-DR-27707/unit-18-Edison/home/168930422,TMLS,2277110,N,Y,35.9596,-78.9439
PAST SALE,May-18-2020,Single Family Residential,3402 Cedarbird Way Lot 39-Travis,Durham,NC,27707,460677,4,2.5,Durham,2703,10018,2020,4,170,55,Sold,,,http://www.redfin.com/NC/Durham/3402-Cedarbird-WAY-27707/unit-39-Travis/home/170008956,TMLS,2291360,N,Y,35.9311,-78.9965
PAST SALE,May-22-2020,Single Family Residential,6 Night Heron Ct Lot 95-Edison,Durham,NC,27707,648065,4,4.0,Durham,3619,11761,2020,1,179,55,Sold,,,http://www.redfin.com/NC/Durham/6-Night-Heron-CT-27707/unit-95-Edison/home/169222533,TMLS,2280989,N,Y,35.9596,-78.9439
PAST SALE,May-28-2019,Single Family Residential,9 Portofino Pl,Durham,NC,27707,1462000,5,6.0,Maida Vale,4673,45738,2007,360,313,225,Sold,,,http://www.redfin.com/NC/Durham/9-Portofino-Pl-27707/home/43606288,TMLS,2248528,N,Y,35.9290429,-78.9992063
PAST SALE,November-5-2018,Single Family Residential,1608 Fayetteville St,Durham,NC,27707,433750,6,3.0,Lucas,3332,6272,1919,564,130,,Sold,,,http://www.redfin.com/NC/Durham/1608-Fayetteville-St-27707/home/43532066,TMLS,2178671,N,Y,35.9784875,-78.9005996
PAST SALE,,Single Family Residential,3736 Bentley Dr,Durham,NC,27707,710000,4,3.5,,4139,57761,1971,,172,,,,,http://www.redfin.com/NC/Durham/3736-Bentley-Dr-27707/home/43545773,,,N,Y,35.9406412,-78.9626078
PAST SALE,October-31-2018,Single Family Residential,4209 New Bern Pl,Durham,NC,27707,615950,4,3.0,Woodberry Forest,3996,55321,1972,569,154,,Sold,,,http://www.redfin.com/NC/Durham/4209-New-Bern-Pl-27707/home/43551628,TMLS,2216787,N,Y,35.9328503,-78.9737854
PAST SALE,,Single Family Residential,3814 Churchill Cir,Durham,NC,27707,650000,4,3.5,,3353,44736,1954,,194,,,,,http://www.redfin.com/NC/Durham/3814-Churchill-Cir-27707/home/43539458,,,N,Y,35.9448528,-78.9566982
PAST SALE,October-15-2018,Single Family Residential,115 Ashworth Dr,Durham,NC,27707,720000,4,2.5,Ashworth Estates,3700,54014,1954,585,195,,Sold,,,http://www.redfin.com/NC/Durham/115-Ashworth-Dr-27707/home/43549141,TMLS,2198982,N,Y,35.9428744,-78.9696989
PAST SALE,February-15-2018,Single Family Residential,4005 Nottaway Rd,Durham,NC,27707,569000,4,3.0,Hope Valley,3018,25264,1988,827,189,,Sold,,,http://www.redfin.com/NC/Durham/4005-Nottaway-Rd-27707/home/43545282,TMLS,2145183,N,Y,35.9365003,-78.9578359
PAST SALE,May-11-2018,Single Family Residential,13 Wesleywood Dr,Durham,NC,27707,449900,4,3.5,Weston Downs,3555,10454,2008,742,127,54,Sold,,,http://www.redfin.com/NC/Durham/13-Wesleywood-Dr-27707/home/43607884,TMLS,2181963,N,Y,35.9336123,-78.9977046
PAST SALE,December-28-2018,Multi-Family (2-4 Unit),2512 Vesson Ave,Durham,NC,27707,420000,6,5.0,Durham,2590,12806,2016,511,162,,Sold,,,http://www.redfin.com/NC/Durham/2512-Vesson-Ave-27707/home/43520517,TMLS,2221439,N,Y,35.982928,-78.934507
PAST SALE,August-20-2018,Single Family Residential,3736 & 3738 Garrett Rd,Durham,NC,27707,543000,5,2.0,Garrett Farms,2580,171190,1927,641,210,,Sold,,,http://www.redfin.com/NC/Durham/3738-Garrett-Rd-27707/home/43547467,TMLS,2206166,N,Y,35.9706048,-78.9785123
PAST SALE,July-12-2018,Single Family Residential,389 Martin Madden Way,Durham,NC,27707,1220249,4,4.5,Orange,4177,58806,2018,680,292,83,Sold,,,http://www.redfin.com/NC/Durham/389-Whitfield-Rd-27705/home/165583819,TMLS,2253634,N,Y,35.9778,-79.0099
PAST SALE,July-5-2018,Single Family Residential,313 Kinsale Dr,Chapel Hill,NC,27517-3436,487500,4,2.5,Blenheim Woods,3218,6882,2008,687,151,50,Sold,,,http://www.redfin.com/NC/Chapel-Hill/313-Kinsale-Dr-27517/home/43608975,TMLS,2183431,N,Y,35.927461,-78.995948
PAST SALE,August-3-2018,Single Family Residential,4713 Myra Gln,Durham,NC,27707,435000,4,3.5,Weston Downs,3499,10062,2012,658,124,57,Sold,,,http://www.redfin.com/NC/Durham/4713-Myra-Glen-Pl-27707/home/49676271,TMLS,2197710,N,Y,35.9340737,-78.9942816
PAST SALE,November-26-2018,Single Family Residential,23 Clearwater Dr,Durham,NC,27707,400000,4,3.0,Bent Creek,3322,21780,1988,543,120,,Sold,,,http://www.redfin.com/NC/Durham/23-Clearwater-Dr-27707/home/43547500,TMLS,2203044,N,Y,35.9373101,-78.967026
PAST SALE,June-18-2018,Single Family Residential,3815 St Marks Rd,Durham,NC,27707,640000,5,3.5,Hope Valley West,4005,17075,1972,704,160,,Sold,,,http://www.redfin.com/NC/Durham/3815-St-Marks-Rd-27707/home/43594268,TMLS,2176618,N,Y,35.9460087,-78.9588522
PAST SALE,May-16-2018,Single Family Residential,3130 Cornwall Rd,Durham,NC,27707,1045000,4,5.5,Hope Valley,4543,28662,1998,737,230,,Sold,,,http://www.redfin.com/NC/Durham/3130-Cornwall-Rd-27707/home/43536997,TMLS,2183435,N,Y,35.9486179,-78.9509649
PAST SALE,October-11-2018,Multi-Family (2-4 Unit),2200 Lafayette St,Durham,NC,27707,885000,4,2.0,Park Place,,7448,1958,589,,,Sold,,,http://www.redfin.com/NC/Durham/2200-Lafayette-St-27707/home/43527297,TMLS,2204692,N,Y,35.9894172,-78.9301131
PAST SALE,October-17-2018,Single Family Residential,3939 Colorado Ave,Durham,NC,27707,417000,4,2.5,Bent Creek,2410,27442,1984,583,173,,Sold,,,http://www.redfin.com/NC/Durham/3939-Colorado-Ave-27707/home/43547952,TMLS,2212358,N,Y,35.9379176,-78.9695001
PAST SALE,July-6-2018,Single Family Residential,2607 Sarah Ave,Durham,NC,27707,507500,4,3.5,Tuscaloosa Lakewood,2105,7405,2018,686,241,,Sold,,,http://www.redfin.com/NC/Durham/2607-Sarah-Ave-27707/home/43521574,TMLS,2172061,N,Y,35.9778665,-78.9316028
PAST SALE,September-10-2018,Single Family Residential,2610 Sarah Ave,Durham,NC,27707,529586,4,3.5,Tuscaloosa Lakewood,2105,7405,2018,620,252,,Sold,,,http://www.redfin.com/NC/Durham/2610-Sarah-Ave-27707/home/110076379,TMLS,2193243,N,Y,35.9777736,-78.9323554
PAST SALE,July-9-2018,Single Family Residential,16 Surrey Ln,Durham,NC,27707,500000,4,3.5,Surrey Green,3082,30884,1984,683,162,54,Sold,,,http://www.redfin.com/NC/Durham/16-Surrey-Ln-27707/home/43544930,TMLS,2182199,N,Y,35.9455455,-78.937111
PAST SALE,August-22-2018,Single Family Residential,3802 Regent Rd,Durham,NC,27707,825000,5,3.5,Hope Valley Country Club,5264,26136,1970,639,157,,Sold,,,http://www.redfin.com/NC/Durham/3802-Regent-Rd-27707/home/43593836,TMLS,2170993,N,Y,35.942121,-78.9615695
PAST SALE,September-5-2018,Single Family Residential,3749 St Marks Rd,Durham,NC,27707-5010,635000,4,3.0,Hope Valley West,3437,23435,1970,625,185,,Sold,,,http://www.redfin.com/NC/Durham/3749-St-Marks-Rd-27707/home/43548817,TMLS,2195204,N,Y,35.9475492,-78.9596033
PAST SALE,September-21-2018,Single Family Residential,4100 Cricket Ln,Durham,NC,27707,997000,5,5.0,New Hope Valley,5182,27007,1994,609,192,,Sold,,,http://www.redfin.com/NC/Durham/4100-Cricket-Ln-27707/home/43550729,TMLS,2198361,N,Y,35.9444703,-78.9633368
PAST SALE,February-1-2018,Single Family Residential,910 Tarik Dr,Durham,NC,27707,480000,4,3.5,Archdale,3589,34412,1988,841,134,,Sold,,,http://www.redfin.com/NC/Durham/910-Tarik-Dr-27707/home/43536910,TMLS,2144616,N,Y,35.9566446,-78.9413677
PAST SALE,,Single Family Residential,2705 Bexley Ave,Durham,NC,27707,677500,5,4.0,,3775,21998,2016,,179,,,,,http://www.redfin.com/NC/Durham/2705-Bexley-Ave-27707/home/43536062,,,N,Y,35.9663663,-78.93057
PAST SALE,December-17-2018,Single Family Residential,11 Treviso Pl,Durham,NC,27707,665000,4,4.5,Maida Vale,3607,6403,2017,522,184,225,Sold,,,http://www.redfin.com/NC/Durham/11-Treviso-Pl-27707/home/43603269,TMLS,2196617,N,Y,35.9303879,-78.9985217
PAST SALE,October-4-2018,Single Family Residential,2305 Chapel Hill Rd,Durham,NC,27707,575000,5,3.5,Tuscaloosa Lakewood,2406,11325,1920,596,239,,Sold,,,http://www.redfin.com/NC/Durham/2305-Chapel-Hill-Rd-27707/home/43522998,TMLS,2212764,N,Y,35.9826215,-78.9306557
PAST SALE,November-27-2018,Single Family Residential,2206 Arrington St,Durham,NC,27707,755000,4,4.0,Forest Hills,3029,13503,1956,542,249,,Sold,,,http://www.redfin.com/NC/Durham/2206-Arrington-St-27707/home/43524053,TMLS,2213760,N,Y,35.9753246,-78.9189454
PAST SALE,June-16-2017,Single Family Residential,3809 Chippenham Rd,Durham,NC,27707,665000,4,4.0,Hope Valley,4494,20081,1985,1071,148,,Sold,,,http://www.redfin.com/NC/Durham/3809-Chippenham-Rd-27707/home/43548257,TMLS,2113337,N,Y,35.9468599,-78.9648611
PAST SALE,September-7-2017,Single Family Residential,36 Kimberly Dr,Durham,NC,27707,579042,5,4.5,Hope Valley Country Club,4146,41817,1991,988,140,,Sold,,,http://www.redfin.com/NC/Durham/36-Kimberly-Dr-27707/home/43545760,TMLS,2126043,N,Y,35.9371434,-78.9560985
PAST SALE,September-28-2018,Single Family Residential,3507 Cambridge Rd,Durham,NC,27707,990800,5,4.0,Hope Valley,5565,30143,1967,602,178,,Sold,,,http://www.redfin.com/NC/Durham/3507-Cambridge-Rd-27707/home/43535702,TMLS,2192769,N,Y,35.954759,-78.9483136
PAST SALE,September-26-2018,Single Family Residential,3539 Rugby Rd,Durham,NC,27707,685000,4,3.5,Durham,2516,57760,1961,604,272,,Sold,,,http://www.redfin.com/NC/Durham/3539-Rugby-Rd-27707/home/43545130,TMLS,2211331,N,Y,35.9363278,-78.951672
PAST SALE,,Single Family Residential,1920 Bivins St,Durham,NC,27707,510000,4,3.5,,1978,9017,2016,,258,,,,,http://www.redfin.com/NC/Durham/1920-Bivins-St-27707/home/144337390,,,N,Y,35.9858894,-78.927337
PAST SALE,November-19-2019,Single Family Residential,3806 Regent Rd,Durham,NC,27707,500000,4,4.0,Hope Valley Country Club,3813,29838,1970,185,131,,Sold,,,http://www.redfin.com/NC/Durham/3806-Regent-Rd-27707/home/43545765,TMLS,2252960,N,Y,35.941732,-78.96168
PAST SALE,December-23-2019,Single Family Residential,2 Night Heron Ct Lot 93-Hamel,Durham,NC,27707,593413,4,4.5,Durham,4438,13068,2019,151,134,55,Sold,,,http://www.redfin.com/NC/Durham/2-Night-Heron-CT-27707/unit-93-Hamel/home/167049266,TMLS,2259804,N,Y,35.9736029929933,-78.9759645207704
PAST SALE,February-18-2020,Single Family Residential,3726 St Marks Rd,Durham,NC,27707,853250,5,4.5,Hope Valley Country Club,4781,32495,1969,94,178,,Sold,,,http://www.redfin.com/NC/Durham/3726-St-Marks-Rd-27707/home/43550302,TMLS,2300546,N,Y,35.9484951,-78.9611939
PAST SALE,October-19-2018,Single Family Residential,5 Teahouse Ct,Durham,NC,27707,485000,4,3.5,Marena Place,3883,11630,2006,581,125,,Sold,,,http://www.redfin.com/NC/Durham/5-Teahouse-Ct-27707/home/43597360,TMLS,2193332,N,Y,35.9309667,-78.9975059
PAST SALE,June-19-2019,Single Family Residential,2005 Wilshire Dr,Durham,NC,27707,625000,4,3.5,Forest Hills,2687,31537,1980,338,233,,Sold,,,http://www.redfin.com/NC/Durham/2005-Wilshire-Dr-27707/home/43529569,TMLS,2262935,N,Y,35.9752679,-78.9143955
PAST SALE,October-18-2019,Single Family Residential,2300 Whitley Dr,Durham,NC,27707,470000,4,2.0,Rockwood,2109,42601,1961,217,223,,Sold,,,http://www.redfin.com/NC/Durham/2300-Whitley-Dr-27707/home/43527494,TMLS,2274413,N,Y,35.973888,-78.9211113
PAST SALE,October-30-2019,Single Family Residential,2217 Chapel Hill Rd,Durham,NC,27707,470000,4,3.5,Tuscaloosa Lakewood,2093,5445,2019,205,225,,Sold,,,http://www.redfin.com/NC/Durham/2217-Chapel-Hill-Rd-27707/home/43521061,TMLS,2267622,N,Y,35.9832922,-78.9304264
PAST SALE,April-24-2019,Single Family Residential,1900 James St,Durham,NC,27707,420000,4,3.5,Tuscaloosa Lakewood,2373,9147,2016,394,177,,Sold,,,http://www.redfin.com/NC/Durham/1900-James-St-27707/home/43520689,TMLS,2242297,N,Y,35.9773887,-78.9266806
PAST SALE,March-25-2019,Single Family Residential,3922 Hope Valley Rd,Durham,NC,27707,477500,4,3.0,Durham,2673,43995,1999,424,179,,Sold,,,http://www.redfin.com/NC/Durham/3922-Hope-Valley-Rd-27707/home/43545648,TMLS,2238779,N,Y,35.9382918,-78.9456622
PAST SALE,December-30-2019,Single Family Residential,3605 Cedarbird Way Lot 54-Travis,Durham,NC,27707,515851,5,4.5,Durham,3709,10454,2019,144,139,55,Sold,,,http://www.redfin.com/NC/Durham/3605-Cedarbird-WAY-27707/unit-54-Travis/home/167104345,TMLS,2261976,N,Y,35.9596,-78.9439
PAST SALE,March-20-2019,Single Family Residential,5315 Weston Downs Dr,Durham,NC,27707-9218,470000,5,4.5,Weston Downs,3837,16639,2013,429,122,57,Sold,,,http://www.redfin.com/NC/Durham/5315-Weston-Downs-Dr-27707/home/49676246,TMLS,2238063,N,Y,35.931305,-78.9952533
PAST SALE,October-6-2017,Single Family Residential,2 Kimberly Dr,Durham,NC,27707,667500,4,4.5,Hope Valley,3724,51270,1965,959,179,,Sold,,,http://www.redfin.com/NC/Durham/2-Kimberly-Dr-27707/home/43545738,TMLS,2122900,N,Y,35.9394479,-78.9581231
PAST SALE,August-25-2017,Single Family Residential,4314 Swarthmore Rd,Durham,NC,27707,443700,4,2.5,Marydell Estates,3060,20037,1987,1001,145,,Sold,,,http://www.redfin.com/NC/Durham/4314-Swarthmore-Rd-27707/home/43545623,TMLS,2133270,N,Y,35.9321439,-78.9688815
PAST SALE,July-18-2017,Single Family Residential,4117 Amesbury Ln,Durham,NC,27707-5709,620000,5,4.5,Marydell Estates,4671,27442,1992,1039,133,,Sold,,,http://www.redfin.com/NC/Durham/4117-Amesbury-Ln-27707/home/43605336,TMLS,2120602,N,Y,35.935053,-78.9653471
