SALE TYPE,SOLD DATE,PROPERTY TYPE,ADDRESS,CITY,STATE OR PROVINCE,ZIP OR POSTAL CODE,PRICE,BEDS,BATHS,LOCATION,SQUARE FEET,LOT SIZE,YEAR BUILT,DAYS ON MARKET,$/SQUARE FEET,HOA/MONTH,STATUS,NEXT OPEN HOUSE START TIME,NEXT OPEN HOUSE END TIME,URL (SEE http://www.redfin.com/buy-a-home/comparative-market-analysis FOR INFO ON PRICING),SOURCE,MLS#,FAVORITE,INTERESTED,LATITUDE,LONGITUDE
PAST SALE,August-8-2019,Townhouse,361 Kilarney Dr,Durham,NC,27703,96000,2,1.5,Scotland Manor,1178,1393,1985,288,81,60,Sold,,,http://www.redfin.com/NC/Durham/361-Kilarney-Dr-27703/home/43544368,TMLS,2268928,N,Y,35.9915521,-78.8432743
PAST SALE,July-10-2017,Single Family Residential,1716 Ed Cook Rd,Durham,NC,27703,79007,2,2.0,Durham,1101,31624,1935,1047,72,,Sold,,,http://www.redfin.com/NC/Durham/1716-Ed-Cook-Rd-27703/home/43558956,TMLS,2119742,N,Y,35.945993,-78.875175
PAST SALE,,Single Family Residential,608 N Driver St,Durham,NC,27703,85000,2,1.0,,1076,7667,1930,,79,,,,,http://www.redfin.com/NC/Durham/608-N-Driver-St-27703/home/43527231,,,N,Y,35.9918856,-78.878478
PAST SALE,,Single Family Residential,2604 Ashe St,Durham,NC,27703,70000,4,1.0,,1190,7187,1952,,59,,,,,http://www.redfin.com/NC/Durham/2604-Ashe-St-27703/home/43531433,,,N,Y,35.9813985,-78.8710947
PAST SALE,,Single Family Residential,708 Bernice St,Durham,NC,27703,50000,3,1.0,,888,7536,1951,,56,,,,,http://www.redfin.com/NC/Durham/708-Bernice-St-27703/home/43534860,,,N,Y,35.977101,-78.8857436
PAST SALE,,Single Family Residential,214 N Hyde Park Ave,Durham,NC,27703,55000,3,1.0,,999,8015,1921,,55,,,,,http://www.redfin.com/NC/Durham/214-N-Hyde-Park-Ave-27703/home/43530757,,,N,Y,35.9875483,-78.881587
PAST SALE,,Single Family Residential,2737 Marlin Dr,Durham,NC,27703,99000,3,2.0,,1040,8756,1987,,95,,,,,http://www.redfin.com/NC/Durham/2737-Marlin-Dr-27703/home/43535526,,,N,Y,35.9853238,-78.8663301
PAST SALE,,Single Family Residential,1207 N Guthrie Ave,Durham,NC,27703,60000,2,1.0,,1101,15159,1949,,54,,,,,http://www.redfin.com/NC/Durham/1207-N-Guthrie-Ave-27703/home/43530866,,,N,Y,35.9979508,-78.8746111
PAST SALE,,Multi-Family (2-4 Unit),110 S Hyde Park Ave,Durham,NC,27703,80000,4,2.0,,1952,13547,1900,,41,,,,,http://www.redfin.com/NC/Durham/110-S-Hyde-Park-Ave-27703/home/43526051,,,N,Y,35.9845679,-78.8821047
PAST SALE,June-7-2017,Single Family Residential,113 Scheer Ave,Durham,NC,27703,98000,3,2.0,Bavarian Village,1138,35240,1997,1080,86,,Sold,,,http://www.redfin.com/NC/Durham/113-Scheer-Ave-27703/home/43565500,TMLS,2119124,N,Y,35.9622685,-78.8135094
PAST SALE,,Single Family Residential,3509 Sidneys Way,Durham,NC,27703,82000,3,2.0,,1220,15246,2001,,67,,,,,http://www.redfin.com/NC/Durham/3509-Sidneys-Way-27703/home/43590277,,,N,Y,36.0041436,-78.8305886
PAST SALE,,Single Family Residential,1804 Bethesda Ave,Durham,NC,27703,75000,2,1.0,,784,7231,1951,,96,,,,,http://www.redfin.com/NC/Durham/1804-Bethesda-Ave-27703/home/43594378,,,N,Y,35.94371,-78.8374349
PAST SALE,,Single Family Residential,2315 E Main St,Durham,NC,27703,70000,3,2.5,,1818,5706,1920,,39,,,,,http://www.redfin.com/NC/Durham/2315-E-Main-St-27703/home/43528438,,,N,Y,35.9863069,-78.873636
PAST SALE,,Single Family Residential,1014 Big Spring Cir,Durham,NC,27703,91000,3,2.0,,2841,10498,2018,,32,,,,,http://www.redfin.com/NC/Durham/1014-Big-Spring-Cir-27703/home/146220143,,,N,Y,35.955843,-78.80465
PAST SALE,,Multi-Family (2-4 Unit),409 N Maple St,Durham,NC,27703,75000,4,2.0,,1440,8015,1950,,52,,,,,http://www.redfin.com/NC/Durham/409-N-Maple-St-27703/home/43525825,,,N,Y,35.989624,-78.8808795
PAST SALE,July-7-2017,Single Family Residential,607 Bacon St,Durham,NC,27703-5001,94000,2,1.0,College View,785,7448,1952,1050,120,,Sold,,,http://www.redfin.com/NC/Durham/607-Bacon-St-27703/home/43532423,TMLS,2097470,N,Y,35.9785497,-78.8832674
PAST SALE,,Multi-Family (2-4 Unit),1910 Hart St,Durham,NC,27703,70000,4,2.0,,1752,6708,1936,,40,,,,,http://www.redfin.com/NC/Durham/1910-Hart-St-27703/home/43527620,,,N,Y,35.9839956,-78.8795256
PAST SALE,,Multi-Family (2-4 Unit),626 Reservoir St,Durham,NC,27703,100000,4,2.0,,1652,10934,1968,,61,,,,,http://www.redfin.com/NC/Durham/626-Reservoir-St-27703/home/43535435,,,N,Y,35.9765275,-78.880942
PAST SALE,,Vacant Land,3839 Angier Ave,Durham,NC,27703,40000,,,,,38507,,,,,,,,http://www.redfin.com/NC/Durham/3839-Angier-Ave-27703/home/43599510,,,N,Y,35.95077,-78.845538
PAST SALE,January-16-2018,Single Family Residential,1232 N Miami Blvd,Durham,NC,27705,95000,2,1.0,Durham,824,7405,1940,857,115,,Sold,,,http://www.redfin.com/NC/Durham/1232-N-Miami-Blvd-27703/home/43531606,TMLS,2155770,N,Y,35.9983175,-78.873594
PAST SALE,,Vacant Land,225 E End Ave,Durham,NC,27703,14637,,,,,7449,,,,,,,,http://www.redfin.com/NC/Durham/225-E-End-Ave-27703/home/162885950,,,N,Y,35.9741,-78.86167
PAST SALE,September-24-2019,Vacant Land,1-37 Eastern Way Unit East End Village,Durham,NC,27703,77500,,,Durham,,251689,,241,,,Sold,,,http://www.redfin.com/NC/Durham/1-37-Eastern-WAY-27703/unit-East-End-Village/home/167659040,TMLS,2268030,N,Y,35.973882634025,-78.8572429871521
PAST SALE,,Vacant Land,3130 Rowena Ave,Durham,NC,27703,40000,,,,,29926,,,,,,,,http://www.redfin.com/NC/Durham/3130-Rowena-Ave-27703/home/43541448,,,N,Y,35.972442,-78.859047
PAST SALE,April-29-2020,Vacant Land,528 S Miami Blvd,Durham,NC,27703,85000,,,Durham,,129808,,23,,,Sold,,,http://www.redfin.com/NC/Durham/528-S-Miami-Blvd-27703/home/169250760,TMLS,2281463,N,Y,35.977167,-78.85675
PAST SALE,January-11-2019,Vacant Land,1619 Bunn Ter,Durham,NC,27703,20000,,,Durham,,6926,,497,,,Sold,,,http://www.redfin.com/NC/Durham/1619-Bunn-Ter-27703/home/43528230,TMLS,2172782,N,Y,35.994872,-78.872703
PAST SALE,,Other,1504 Holloway St,Durham,NC,27703,18500,,,,,7928,,,,,,,,http://www.redfin.com/NC/Durham/1504-Holloway-St-27703/home/43527798,,,N,Y,35.9938623,-78.8751197
PAST SALE,,Other,2601 Ashe St,Durham,NC,27703,48000,,,,,7405,,,,,,,,http://www.redfin.com/NC/Durham/2601-Ashe-St-27703/home/43528486,,,N,Y,35.9817847,-78.8711832
PAST SALE,March-2-2020,Vacant Land,315 Truce St,Durham,NC,27703,19500,,,To Be Added,,15072,,81,,,Sold,,,http://www.redfin.com/NC/Durham/315-Truce-St-27703/home/43528479,TMLS,2300444,N,Y,35.982752,-78.8728597
PAST SALE,June-4-2018,Vacant Land,2318 Adventure Trl,Durham,NC,27703,45000,,,Cherokee Forest,,63597,,718,,,Sold,,,http://www.redfin.com/NC/Durham/2318-Adventure-Trl-27703/home/43586071,TMLS,2159033,N,Y,35.935074,-78.796052
PAST SALE,,Vacant Land,1121 Farm Leaf Dr,Durham,NC,27703,94500,,,,,8320,,,,,,,,http://www.redfin.com/NC/Durham/1121-Farm-Leaf-Dr-27703/home/110075798,,,N,Y,35.9461054,-78.7926833
PAST SALE,,Vacant Land,113 Beasley Ave,Durham,NC,27703,30000,,,,,47393,,,,,,,,http://www.redfin.com/NC/Durham/113-Beasley-Ave-27703/home/43559802,,,N,Y,35.984389,-78.839117
PAST SALE,September-19-2017,Vacant Land,426 Princess Anne Dr,Durham,NC,27703,33500,,,Huskett Acres,,21780,,976,,,Sold,,,http://www.redfin.com/NC/Durham/426-Princess-Anne-Dr-27703/home/43542417,TMLS,2148035,N,Y,35.994239,-78.843467
PAST SALE,,Vacant Land,1107 High Fox Dr,Durham,NC,27703,15000,,,,,20430,,,,,,,,http://www.redfin.com/NC/Durham/1107-High-Fox-Dr-27703/home/43563017,,,N,Y,35.9634,-78.825558
PAST SALE,,Vacant Land,3810 Mary Martin Rd,Durham,NC,27703,14500,,,,,19994,,,,,,,,http://www.redfin.com/NC/Durham/3810-Mary-Martin-Rd-27703/home/43568972,,,N,Y,35.996324,-78.816275
PAST SALE,September-24-2019,Vacant Land,126 Abbott Ln,Durham,NC,27703,10000,,,Bavarian Village,,23696,,241,,,Sold,,,http://www.redfin.com/NC/Durham/126-Abbott-Ln-27703/home/43566180,TMLS,2278200,N,Y,35.9638,-78.810515
PAST SALE,September-25-2019,Vacant Land,3514 Grimes Ave,Durham,NC,27703,28500,,,Durham,,29272,,240,,,Sold,,,http://www.redfin.com/NC/Durham/3514-Grimes-Ave-27703/home/43593501,TMLS,2271199,N,Y,35.9712846,-78.8334361
PAST SALE,October-7-2019,Vacant Land,208 Fountain St,Durham,NC,27703,10000,,,Twin Lake Estates,,15376,,228,,,Sold,,,http://www.redfin.com/NC/Durham/208-Fountain-St-27703/home/43593800,TMLS,2255297,N,Y,35.9933206,-78.8389147
PAST SALE,July-31-2017,Vacant Land,6068 Wake Forest Hwy,Durham,NC,27703,90000,,,Durham,,653400,,1026,,,Sold,,,http://www.redfin.com/NC/Durham/6068-Wake-Forest-Hwy-27703/home/113115206,TMLS,2111006,N,Y,35.976096,-78.76208
PAST SALE,April-16-2020,Vacant Land,4201 Rogers Rd,Durham,NC,27703,50000,,,Durham,,129635,,36,,,Sold,,,http://www.redfin.com/NC/Durham/4201-Jimmy-Rogers-Rd-27703/home/43567588,TMLS,2267018,N,Y,36.011908,-78.798498
PAST SALE,,Vacant Land,204 Olive Branch Rd,Durham,NC,27703,5000,,,,,30013,,,,,,,,http://www.redfin.com/NC/Durham/204-Olive-Branch-Rd-27703/home/43584366,,,N,Y,35.97352,-78.785136
PAST SALE,August-30-2017,Vacant Land,2620 Holloway St,Durham,NC,27703,15000,,,Woodcrest,,19079,,996,,,Sold,,,http://www.redfin.com/NC/Durham/2620-Holloway-St-27703/home/43541408,TMLS,2144879,N,Y,35.988646,-78.853177
PAST SALE,,Vacant Land,235 N Hoover Rd,Durham,NC,27703,14500,,,,,12240,,,,,,,,http://www.redfin.com/NC/Durham/235-N-Hoover-Rd-27703/home/43561080,,,N,Y,35.993894,-78.85876
PAST SALE,,Vacant Land,2610 Holloway St,Durham,NC,27703,8500,,,,,9496,,,,,,,,http://www.redfin.com/NC/Durham/2610-Holloway-St-27703/home/169618969,,,N,Y,35.9887743,-78.8536676
PAST SALE,,Vacant Land,815 Glenco Rd,Durham,NC,27703,45000,,,,,25526,,,,,,,,http://www.redfin.com/NC/Durham/815-Glenco-Rd-27703/home/43565240,,,N,Y,35.941126,-78.833854
PAST SALE,August-28-2019,Vacant Land,4310 Angier Ave,Durham,NC,27703,45000,,,Durham,,32190,,268,,,Sold,,,http://www.redfin.com/NC/Durham/4310-Angier-Ave-27703/home/148242602,TMLS,2242314,N,Y,35.940833,-78.8331259
PAST SALE,July-5-2018,Vacant Land,1601 Sherron Rd,Durham,NC,27703,43000,,,Durham,,59502,,687,,,Sold,,,http://www.redfin.com/NC/Durham/1601-Sherron-Rd-27703/home/43566007,TMLS,2197273,N,Y,35.955704,-78.825993
PAST SALE,January-27-2020,Vacant Land,1169 Stone Rd,Durham,NC,27703,19000,,,Bledsoe,,10236,,116,,,Sold,,,http://www.redfin.com/NC/Durham/1169-Stone-Rd-27703/home/162813574,TMLS,2270767,N,Y,35.949135,-78.852564
PAST SALE,April-4-2018,Vacant Land,206 Hocutt Rd Lot 8,Durham,NC,27703,5500,,,Durham,,12763,,779,,,Sold,,,http://www.redfin.com/NC/Durham/206-Hocutt-Rd-27703/unit-8/home/145011592,TMLS,2176380,N,Y,35.9761529,-78.801227
PAST SALE,November-26-2019,Vacant Land,2858 Baptist Rd,Durham,NC,27703,70100,,,Durham,,316333,,178,,,Sold,,,http://www.redfin.com/NC/Durham/2858-Baptist-Rd-27703/home/43585629,TMLS,2280584,N,Y,36.003622,-78.739309
PAST SALE,May-18-2020,Vacant Land,2022 Wentz Dr,Durham,NC,27703,35000,,,Durham,,110250,,4,,,Sold,,,http://www.redfin.com/NC/Durham/2022-Wentz-Dr-27703/home/43584661,TMLS,2295655,N,Y,36.003231,-78.728306
PAST SALE,February-1-2019,Vacant Land,306 E End St,Durham,NC,27703-4434,21550,,,R H Wright Estate,,7753,,476,,,Sold,,,http://www.redfin.com/NC/Durham/306-E-End-Ave-27703/home/43542012,TMLS,2224210,N,Y,35.974907,-78.862862
PAST SALE,,Vacant Land,222 Hocutt Rd,Durham,NC,27703,10000,,,,,30448,,,,,,,,http://www.redfin.com/NC/Durham/222-Hocutt-Rd-27703/home/43565791,,,N,Y,35.974925,-78.801971
PAST SALE,,Other,1721 Fletchers Chapel Rd,Durham,NC,27703,60000,,,,,163742,,,,,,,,http://www.redfin.com/NC/Durham/1721-Fletchers-Chapel-Rd-27703/home/43566767,,,N,Y,36.0059222,-78.8026232
PAST SALE,,Vacant Land,307 E End Ave,Durham,NC,27703,14500,,,,,7449,,,,,,,,http://www.redfin.com/NC/Durham/307-E-End-Ave-27703/home/43542061,,,N,Y,35.9743489,-78.8628559
PAST SALE,,Vacant Land,508 Currin St,Durham,NC,27703,20000,,,,,9757,,,,,,,,http://www.redfin.com/NC/Durham/508-Currin-St-27703/home/162765918,,,N,Y,35.9755855,-78.8287758
PAST SALE,August-23-2018,Vacant Land,107 N Benjamine St,Durham,NC,27703-3221,55000,,,Markham Estates,,54711,,638,,,Sold,,,http://www.redfin.com/NC/Durham/107-N-Benjamine-St-27703/home/43528422,TMLS,2209245,N,Y,35.987138,-78.869203
PAST SALE,,Other,1135 Raynor St,Durham,NC,27703,75000,,,,,3354,,,,,,,,http://www.redfin.com/NC/Durham/1135-Raynor-St-27703/home/43533432,,,N,Y,35.996293,-78.866568
PAST SALE,,Condo/Co-op,312 S Driver St,Durham,NC,27703,36500,,,,882,,1940,,41,,,,,http://www.redfin.com/NC/Durham/312-S-Driver-St-27703/home/43527575,,,N,Y,35.9824733,-78.8779499
PAST SALE,,Vacant Land,2612 Holloway St,Durham,NC,27703,8500,,,,,9496,,,,,,,,http://www.redfin.com/NC/Durham/2612-Holloway-St-27703/home/43541936,,,N,Y,35.98879,-78.853829
PAST SALE,December-3-2019,Vacant Land,1020 Statler Dr,Durham,NC,27703,30000,,,Ridgefield,,7405,,171,,,Sold,,,http://www.redfin.com/NC/Durham/1020-Statler-Dr-27703/home/43605813,TMLS,2278640,N,Y,36.004439,-78.809527
PAST SALE,February-4-2020,Vacant Land,2607 Ashe St,Durham,NC,27703,50000,,,Durham,,12763,,108,,,Sold,,,http://www.redfin.com/NC/Durham/2607-Ashe-St-27703/home/43528488,TMLS,2294112,N,Y,35.981931,-78.870638
PAST SALE,February-13-2020,Vacant Land,4 Kimbrough Ct,Durham,NC,27703,58000,,,Grovepark,,6969,,99,,,Sold,,,http://www.redfin.com/NC/Durham/4-Kimbrough-Ct-27703/home/43588017,TMLS,2296307,N,Y,35.9840318,-78.807801
PAST SALE,February-28-2020,Vacant Land,1115 Eva St,Durham,NC,27703,97750,,,Durham,,7013,,84,,,Sold,,,http://www.redfin.com/NC/Durham/1115-Eva-St-27703/home/43526339,TMLS,2300978,N,Y,35.9937606,-78.8806584
PAST SALE,March-26-2020,Vacant Land,903 N Mineral Springs Rd,Durham,NC,27703,15000,,,Durham,,19994,,57,,,Sold,,,http://www.redfin.com/NC/Durham/903-N-Mineral-Springs-Rd-27703/home/43566947,TMLS,2219942,N,Y,35.995356,-78.81378
PAST SALE,,Vacant Land,2415 Windy Hill Rd,Durham,NC,27703,15000,,,,,23827,,,,,,,,http://www.redfin.com/NC/Durham/2415-Windy-Hill-Rd-27703/home/43564429,,,N,Y,35.93234,-78.82877
PAST SALE,August-29-2019,Vacant Land,4316 Angier Ave,Durham,NC,27703,38700,,,Durham,,82459,,267,,,Sold,,,http://www.redfin.com/NC/Durham/4316-Angier-Ave-27703/home/148243862,TMLS,2242317,N,Y,35.940204,-78.83304
PAST SALE,July-3-2019,Vacant Land,1813 So Hi Dr,Durham,NC,27703,44900,,,Durham,,30491,,324,,,Sold,,,http://www.redfin.com/NC/Unknown/1813-S-HI-DR-Unknown/home/88578778,TMLS,2255643,N,Y,35.943384,-78.880762
PAST SALE,October-18-2018,Vacant Land,904 Post Ave,Durham,NC,27703,29900,,,Durham,,21344,,582,,,Sold,,,http://www.redfin.com/NC/Durham/904-Post-Ave-27703/home/43541968,TMLS,2217054,N,Y,35.965546,-78.856551
PAST SALE,,Vacant Land,3927 Laurel Dr,Durham,NC,27703,21000,,,,,52925,,,,,,,,http://www.redfin.com/NC/Durham/3927-Laurel-Dr-27703/home/43563535,,,N,Y,35.957105,-78.845705
PAST SALE,July-3-2019,Vacant Land,1817 So Hi Dr,Durham,NC,27703,44900,,,Durham,,30491,,324,,,Sold,,,http://www.redfin.com/NC/Unknown/1817-S-HI-DR-Unknown/home/88578280,TMLS,2255631,N,Y,35.943071,-78.880593
PAST SALE,October-2-2019,Vacant Land,1415 Ruritan Rd,Durham,NC,27703,68000,,,Durham,,17424,,233,,,Sold,,,http://www.redfin.com/NC/Durham/1415-Ruritan-Rd-27703/home/43563674,TMLS,2277105,N,Y,35.9535539,-78.845506
PAST SALE,October-17-2019,Vacant Land,302 Scheer Ave,Durham,NC,27703,45000,,,Bavarian Village,,25961,,218,,,Sold,,,http://www.redfin.com/NC/Durham/302-Scheer-Ave-27703/home/43565672,TMLS,2278195,N,Y,35.965372,-78.812728
PAST SALE,,Vacant Land,3848 Angier Ave,Durham,NC,27703,50000,,,,,83592,,,,,,,,http://www.redfin.com/NC/Durham/3848-Angier-Ave-27703/home/162867325,,,N,Y,35.9464543,-78.8469278
PAST SALE,,Vacant Land,964 Jones Cir,Durham,NC,27703,60000,,,,,219107,,,,,,,,http://www.redfin.com/NC/Durham/964-Jones-Cir-27703/home/43563537,,,N,Y,35.956925,-78.847633
PAST SALE,January-8-2020,Vacant Land,322 Scheer Ave,Durham,NC,27703,53000,,,Bavarian Village,,31929,,135,,,Sold,,,http://www.redfin.com/NC/Durham/322-Scheer-Ave-27703/home/43566168,TMLS,2278199,N,Y,35.96578,-78.812937
PAST SALE,,Single Family Residential,803 Ellis Rd,Durham,NC,27703,89500,,,,,30013,,,,,,,,http://www.redfin.com/NC/Durham/803-Ellis-Rd-27703/home/43559688,,,N,Y,35.9675091,-78.8680549
PAST SALE,January-21-2020,Vacant Land,902 Danbury Dr,Durham,NC,27703,20000,,,Fletcher Hills,,20037,,122,,,Sold,,,http://www.redfin.com/NC/Durham/902-Danbury-Dr-27703/home/43563035,TMLS,2295247,N,Y,35.969209,-78.826083
PAST SALE,January-27-2020,Vacant Land,1139 Stone Rd,Durham,NC,27703,50000,,,Bledsoe,,47219,,116,,,Sold,,,http://www.redfin.com/NC/Durham/1139-Stone-Rd-27703/home/43563320,TMLS,2270771,N,Y,35.949263,-78.851966
PAST SALE,April-12-2018,Vacant Land,"1208 N Miami Blvd Unit 1201, 1203, 1205 Wesley Street",Durham,NC,27703,5000,,,Alta Vista,,29620,,771,,,Sold,,,http://www.redfin.com/NC/Durham/1208-N-Miami-Blvd-27703/unit-1201-1203-1205-Wesley-Street/home/144798169,TMLS,2170786,N,Y,35.9969515,-78.8725131
PAST SALE,October-2-2017,Single Family Residential,2704 Rochelle St,Durham,NC,27701,46000,2,1.0,Durham,726,7840,1945,963,63,,Sold,,,http://www.redfin.com/NC/Durham/2704-Rochelle-St-27703/home/43541797,TMLS,2151666,N,Y,35.9902868,-78.851502
PAST SALE,November-7-2019,Vacant Land,2924 Ross Rd Unit 2956 ROSS ROAD,Durham,NC,27701,62000,,,Scotland Manor,,119790,,197,,,Sold,,,http://www.redfin.com/NC/Durham/2956-Ross-Rd-27703/unit-2956-ROSS-ROAD/home/146109435,TMLS,2258974,N,Y,35.990544,-78.842716
PAST SALE,July-7-2017,Vacant Land,300 Creasy St Lot 96-99,Durham,NC,27703,10900,,,Durham,,33105,,1050,,,Sold,,,http://www.redfin.com/NC/Durham/300-Creasy-St-27703/unit-96-99/home/91488992,TMLS,2088362,N,Y,35.98238,-78.866521
PAST SALE,January-29-2018,Single Family Residential,906 Carter Ave,Durham,NC,27703,80000,2,1.0,Durham,840,10018,1953,844,95,,Sold,,,http://www.redfin.com/NC/Durham/906-Carter-Ave-27703/home/43544550,TMLS,2166873,N,Y,35.9680701,-78.8578901
PAST SALE,June-9-2017,Single Family Residential,306 S Benjamine St,Durham,NC,27703,75150,2,1.0,Durham,912,7840,1958,1078,82,,Sold,,,http://www.redfin.com/NC/Durham/306-S-Benjamine-St-27703/home/43530975,TMLS,2123418,N,Y,35.9829511,-78.869249
PAST SALE,April-23-2018,Vacant Land,1821 Dial Dr,Durham,NC,27713,15000,,,Durham,,30666,,760,,,Sold,,,http://www.redfin.com/NC/Durham/1821-Dial-Dr-27713/home/43558348,TMLS,2169346,N,Y,35.939739,-78.8815915
PAST SALE,,Other,609 N Hyde Park Ave,Durham,NC,27703,100000,,,,,1133,,,,,,,,http://www.redfin.com/NC/Durham/609-N-Hyde-Park-Ave-27703/home/43525802,,,N,Y,35.9920633,-78.8821455
PAST SALE,August-3-2018,Vacant Land,3035 Shady Grove Rd,Durham,NC,27703,80000,,,Durham,,96398,,658,,,Sold,,,http://www.redfin.com/NC/Durham/3035-Shady-Grove-Rd-27703/home/43586368,TMLS,2178915,N,Y,35.924031,-78.7619689
PAST SALE,September-19-2017,Vacant Land,430 Princess Anne Dr,Durham,NC,,33500,,,Huskett Acres,,21780,,976,,,Sold,,,http://www.redfin.com/NC/Durham/430-Princess-Anne-Dr-27703/home/43542416,TMLS,2148036,N,Y,35.994514,-78.843457
PAST SALE,,Vacant Land,4020 Oakview St,Durham,NC,27703,27500,,,,,19776,,,,,,,,http://www.redfin.com/NC/Durham/4020-Oakview-St-27703/home/43563004,,,N,Y,35.965463,-78.825004
PAST SALE,,Vacant Land,309 N Guthrie Ave,Durham,NC,27703,55000,,,,,4051,,,,,,,,http://www.redfin.com/NC/Durham/309-N-Guthrie-Ave-27703/home/43528190,,,N,Y,35.9886928,-78.8765303
PAST SALE,January-11-2019,Vacant Land,905 Bunn Ter,Durham,NC,27703,45000,,,Durham,,22389,,497,,,Sold,,,http://www.redfin.com/NC/Durham/905-Bunn-Ter-27703/home/43528695,TMLS,2218787,N,Y,35.9942224,-78.8721348
PAST SALE,September-19-2017,Vacant Land,313 Hardee St,Durham,NC,27703,14000,,,Durham,,7056,,976,,,Sold,,,http://www.redfin.com/NC/Durham/313-N-Hardee-St-27703/home/43532891,TMLS,2088087,N,Y,35.9947438,-78.8655782
PAST SALE,June-19-2017,Single Family Residential,1618 Kilmer Ter,Durham,NC,27703,95000,2,1.0,Sherwood Forest,833,23261,1940,1068,114,,Sold,,,http://www.redfin.com/NC/Durham/1618-Kilmer-Ter-27703/home/43528097,TMLS,2122290,N,Y,36.0003049,-78.8734061
PAST SALE,,Single Family Residential,2828 Dodson St,Durham,NC,27703,50000,2,1.0,,1200,15943,1963,,42,,,,,http://www.redfin.com/NC/Durham/2828-Dodson-St-27703/home/43544458,,,N,Y,35.9990531,-78.8479301
PAST SALE,,Single Family Residential,309 S Mineral Springs Rd,Durham,NC,27703,75000,2,1.0,,924,8407,1945,,81,,,,,http://www.redfin.com/NC/Durham/309-S-Mineral-Springs-Rd-27703/home/43563354,,,N,Y,35.9766276,-78.8238524
PAST SALE,,Other,1410 Virgil Rd,Durham,NC,27703,35000,,,,,24786,,,,,,,,http://www.redfin.com/NC/Durham/1410-Virgil-Rd-27703/home/43588738,,,N,Y,35.9435075,-78.7576165
PAST SALE,October-19-2017,Single Family Residential,1702 E Main St,Durham,NC,27701,70000,2,1.0,Durham,1223,6185,1918,946,57,,Sold,,,http://www.redfin.com/NC/Durham/1702-E-Main-St-27703/home/43527497,TMLS,2145934,N,Y,35.9852248,-78.8823561
PAST SALE,,Single Family Residential,213 N Maple St,Durham,NC,27703,55000,2,1.0,,815,8015,1950,,67,,,,,http://www.redfin.com/NC/Durham/213-N-Maple-St-27703/home/43527736,,,N,Y,35.9874319,-78.880803
PAST SALE,,Single Family Residential,4 Griffith Pl,Durham,NC,27703,87500,3,1.5,,1092,10193,1987,,80,,,,,http://www.redfin.com/NC/Durham/4-Griffith-Pl-27703/home/43535019,,,N,Y,35.9850518,-78.8656667
PAST SALE,,Single Family Residential,637 Mimosa St,Durham,NC,27703,72000,3,2.0,,1108,12589,1964,,65,,,,,http://www.redfin.com/NC/Durham/637-Mimosa-St-27703/home/43534788,,,N,Y,36.0015678,-78.8672699
PAST SALE,June-21-2017,Single Family Residential,1609 E Main St,Durham,NC,27703,63000,2,1.0,515 Downtown,819,8929,1925,1066,77,,Sold,,,http://www.redfin.com/NC/Durham/1609-E-Main-St-27703/home/43527621,TMLS,2131093,N,Y,35.9856223,-78.8828894
PAST SALE,,Other,1612 E Main St,Durham,NC,27703,37500,,,,,6229,,,,,,,,http://www.redfin.com/NC/Durham/1612-E-Main-St-27703/home/43526026,,,N,Y,35.985185,-78.882828
PAST SALE,January-24-2018,Single Family Residential,8 Kramer Pl,Durham,NC,27703,72000,3,1.0,Durham,960,8929,1971,849,75,,Sold,,,http://www.redfin.com/NC/Durham/8-Kramer-Pl-27703/home/43543161,TMLS,2166091,N,Y,35.9814151,-78.8428872
PAST SALE,March-29-2018,Mobile/Manufactured Home,1121 Baptist Rd,Durham,NC,27704,93500,3,1.0,Durham,1010,45738,1970,785,93,,Sold,,,http://www.redfin.com/NC/Durham/1121-Baptist-Rd-27704/home/43584545,TMLS,2169448,N,Y,35.9920768,-78.767423
PAST SALE,October-20-2017,Vacant Land,4411 Holloman Rd,Durham,NC,27704,42000,,,Durham,,124146,,945,,,Sold,,,http://www.redfin.com/NC/Durham/4411-Holloman-Rd-27703/home/43565611,TMLS,2141378,N,Y,35.935141,-78.830496
PAST SALE,May-30-2017,Vacant Land,3839 Angier Ave #9,Durham,NC,27703,24000,,,Durham,,38332,,1088,,,Sold,,,http://www.redfin.com/NC/Durham/3839-Angier-Ave-27703/unit-9/home/59027228,TMLS,1962455,N,Y,35.95077,-78.845538
PAST SALE,December-30-2018,Vacant Land,810 Post Ave,Durham,NC,27703,30000,,,Durham,,54319,,509,,,Sold,,,http://www.redfin.com/NC/Durham/810-Post-Ave-27703/home/43541970,TMLS,2217058,N,Y,35.965446,-78.8556289
PAST SALE,,Vacant Land,111 Spring St,Durham,NC,27703,36500,,,,,21388,,,,,,,,http://www.redfin.com/NC/Durham/111-Spring-St-27703/home/43561617,,,N,Y,35.96783,-78.852512
PAST SALE,April-11-2018,Single Family Residential,304 E End St,Durham,NC,27703,60000,3,1.0,R H Wright Estate,840,7840,1948,772,71,,Sold,,,http://www.redfin.com/NC/Durham/304-E-End-Ave-27703/home/43542013,TMLS,2036613,N,Y,35.9747748,-78.8626592
PAST SALE,March-2-2018,Single Family Residential,2005 Angier Ave,Durham,NC,27703,60000,3,1.0,Old East Durham,1111,6229,1910,812,54,,Sold,,,http://www.redfin.com/NC/Durham/2005-Angier-Ave-27703/home/43531077,TMLS,2160705,N,Y,35.9827221,-78.879376
PAST SALE,May-30-2017,Vacant Land,450 Stallings Rd,Durham,NC,27713,55000,,,Stallings Land,,88862,,1088,,,Sold,,,http://www.redfin.com/NC/Durham/450-Stallings-Rd-27703/home/43611243,TMLS,2104539,N,Y,35.983713,-78.795967
PAST SALE,July-10-2017,Vacant Land,1509 N Mineral Springs Rd Unit 2r,Durham,NC,27703,45000,,,Durham,,152024,,1047,,,Sold,,,http://www.redfin.com/NC/Durham/1509-N-Mineral-Springs-Rd-27703/unit-2R/home/49739618,TMLS,1902432,N,Y,36.003396,-78.80201
PAST SALE,June-12-2017,Vacant Land,0 Nobel Dr #0,Durham,NC,27703,25000,,,Durham,,95396,,1075,,,Sold,,,http://www.redfin.com/NC/Oak-Grove/Nobel-Dr-27703/unit-0/home/63593737,TMLS,1945852,N,Y,35.979235,-78.821004
PAST SALE,,Vacant Land,206 Hocutt Rd,Durham,NC,27703,5500,,,,,15551,,,,,,,,http://www.redfin.com/NC/Durham/206-Hocutt-Rd-27703/home/43565774,,,N,Y,35.9761529,-78.801227
PAST SALE,,Vacant Land,709 Bayard Rd,Durham,NC,27703,7000,,,,,37549,,,,,,,,http://www.redfin.com/NC/Durham/709-Bayard-Rd-27703/home/43568321,,,N,Y,35.970227,-78.805103
PAST SALE,,Condo/Co-op,322 Junction Rd Unit 25G,Durham,NC,27703,38000,2,1.5,,1116,,1987,,34,,,,,http://www.redfin.com/NC/Durham/322-Junction-Rd-27703/unit-25G/home/43564104,,,N,Y,35.993348,-78.853916
PAST SALE,March-19-2018,Condo/Co-op,612 Kendall Dr #301,Durham,NC,27703,72900,2,2.0,Park Place,970,,1989,795,75,110,Sold,,,http://www.redfin.com/NC/Durham/612-Kendall-Dr-27703/unit-301/home/43560513,TMLS,2161761,N,Y,35.9693265,-78.8396957
PAST SALE,December-11-2018,Vacant Land,1806 Angier Ave,Durham,NC,27703,45000,,,Durham,,7840,,528,,,Sold,,,http://www.redfin.com/NC/Durham/1806-Angier-Ave-27703/unit-29/home/44553567,TMLS,2221245,N,Y,35.983061,-78.881244
PAST SALE,January-11-2019,Vacant Land,1621 Bunn Ter,Durham,NC,27703,35000,,,Durham,,23086,,497,,,Sold,,,http://www.redfin.com/NC/Durham/1621-Bunn-Ter-27703/home/43528229,TMLS,2172783,N,Y,35.994946,-78.872455
PAST SALE,January-11-2019,Vacant Land,1617 Bunn Ter,Durham,NC,27703,25000,,,Durham,,25351,,497,,,Sold,,,http://www.redfin.com/NC/Durham/1617-Bunn-Ter-27703/home/43528687,TMLS,2172781,N,Y,35.9948034,-78.8729986
PAST SALE,May-31-2018,Vacant Land,714 Brye St,Durham,NC,27703,17600,,,Hillcrest,,12458,,722,,,Sold,,,http://www.redfin.com/NC/Durham/714-Brye-St-27703/home/43530750,TMLS,2164951,N,Y,35.992005,-78.87275
PAST SALE,,Vacant Land,2117 Ashe St,Durham,NC,27703,50000,,,,,2919,,,,,,,,http://www.redfin.com/NC/Durham/2117-Ashe-St-27703/home/43528124,,,N,Y,35.982871,-78.876142
PAST SALE,,Vacant Land,2523 Holloway St,Durham,NC,27703,21500,,,,,12066,,,,,,,,http://www.redfin.com/NC/Durham/2523-Holloway-St-27703/home/43544247,,,N,Y,35.990083,-78.8559779
PAST SALE,,Vacant Land,2518 Rochelle St,Durham,NC,27703,9000,,,,,21214,,,,,,,,http://www.redfin.com/NC/Durham/2518-Rochelle-St-27703/home/43544255,,,N,Y,35.990723,-78.85593
PAST SALE,November-5-2018,Vacant Land,1612 Bunn Ter,Durham,NC,27703,35000,,,Durham,,17075,,564,,,Sold,,,http://www.redfin.com/NC/Durham/1612-Bunn-Ter-27703/home/43528694,TMLS,2218788,N,Y,35.994338,-78.872821
PAST SALE,July-24-2017,Vacant Land,1426 Edgerton Dr,Durham,NC,27703,32000,,,Durham,,19602,,1033,,,Sold,,,http://www.redfin.com/NC/Durham/1926-Edgerton-Dr-27703/home/43559534,TMLS,2131914,N,Y,35.953638,-78.874195
PAST SALE,,Vacant Land,120 Wayward Dr,Durham,NC,27703,60000,3,2.0,,1400,24524,1995,,43,,,,,http://www.redfin.com/NC/Durham/120-Wayward-Dr-27703/home/43584689,,,N,Y,35.9996533,-78.7299183
PAST SALE,February-19-2019,Vacant Land,213 Virgil Rd,Durham,NC,27703,25000,,,Durham,,50093,,458,,,Sold,,,http://www.redfin.com/NC/Durham/213-Virgil-Rd-27703/home/43585734,TMLS,2208971,N,Y,35.962037,-78.760384
PAST SALE,January-11-2018,Vacant Land,202 Hocutt Rd,Durham,NC,,5000,,,Durham,,19994,,862,,,Sold,,,http://www.redfin.com/NC/Durham/202-Hocutt-Rd-27703/home/43566254,TMLS,2145051,N,Y,35.976545,-78.801137
PAST SALE,April-15-2020,Vacant Land,2023 Brooks Rd,Durham,NC,27703,87500,,,Durham,,4922,,37,,,Sold,,,http://www.redfin.com/NC/Durham/2023-Brooks-Rd-27703/home/43559503,TMLS,2298738,N,Y,35.9592762,-78.8726653
PAST SALE,,Single Family Residential,2821 Ross Rd,Durham,NC,27703,90000,3,2.0,,1248,21344,1985,,72,,,,,http://www.redfin.com/NC/Durham/2821-Ross-Rd-27703/home/43543896,,,N,Y,35.9927473,-78.8446014
PAST SALE,October-17-2018,Vacant Land,323 S Mineral Springs Rd,Durham,NC,27703,90000,,,Durham,,239449,,583,,,Sold,,,http://www.redfin.com/NC/Durham/323-S-Mineral-Springs-Rd-27703/home/147404101,TMLS,2217905,N,Y,35.975592,-78.823813
PAST SALE,,Vacant Land,900 Danbury Dr,Durham,NC,27703,8000,,,,,20081,,,,,,,,http://www.redfin.com/NC/Durham/900-Danbury-Dr-27703/home/43565032,,,N,Y,35.969484,-78.826077
PAST SALE,,Single Family Residential,121 Young Ave,Durham,NC,27703,60000,3,2.0,,1438,4530,2018,,42,,,,,http://www.redfin.com/NC/Durham/121-Young-Ave-27703/home/43527488,,,N,Y,35.984853,-78.8841528
PAST SALE,August-4-2017,Multi-Family (2-4 Unit),606 N Maple St,Durham,NC,27702,90000,2,2.0,Durham,1774,7536,1920,1022,51,,Sold,,,http://www.redfin.com/NC/Durham/606-N-Maple-St-27703/home/43531319,TMLS,2100422,N,Y,35.9917478,-78.8804226
PAST SALE,June-11-2017,Vacant Land,1908 Edgerton Dr,Durham,NC,27703,33000,,,Edgerton,,25395,,1076,,,Sold,,,http://www.redfin.com/NC/Durham/1908-Edgerton-Dr-27703/home/43559536,TMLS,2128017,N,Y,35.953685,-78.875907
PAST SALE,,Multi-Family (2-4 Unit),1208 Eva St,Durham,NC,27703,80000,3,3.0,,1668,9975,1920,,48,,,,,http://www.redfin.com/NC/Durham/1208-Eva-St-27703/home/43530859,,,N,Y,35.993371,-78.879295
PAST SALE,,Multi-Family (2-4 Unit),114 Hardee St,Durham,NC,27703,50000,2,2.0,,1170,12371,1952,,43,,,,,http://www.redfin.com/NC/Durham/114-Hardee-St-27703/home/43534926,,,N,Y,35.990838,-78.8660205
PAST SALE,,Other,403 E End Ave,Durham,NC,27703,15000,,,,,7449,,,,,,,,http://www.redfin.com/NC/Durham/403-E-End-Ave-27703/home/43544624,,,N,Y,35.974342,-78.86386
PAST SALE,July-11-2017,Single Family Residential,2608 E Main St,Durham,NC,27704,53017,3,1.0,Durham,1240,8276,1955,1046,43,,Sold,,,http://www.redfin.com/NC/Durham/2608-E-Main-St-27703/home/43530558,TMLS,2131196,N,Y,35.9861585,-78.8693043
PAST SALE,May-30-2018,Single Family Residential,4014 E Wake Forest Hwy,Durham,NC,27703,80000,2,1.0,Durham,1700,20952,1956,723,47,,Sold,,,http://www.redfin.com/NC/Durham/4014-Wake-Forest-Hwy-27703/home/43565600,TMLS,2187234,N,Y,35.97948,-78.8143514
PAST SALE,,Single Family Residential,316 Hocutt Rd,Durham,NC,27703,90000,2,1.0,,1018,26702,1961,,88,,,,,http://www.redfin.com/NC/Durham/316-Hocutt-Rd-27703/home/43568789,,,N,Y,35.9734707,-78.8009968
PAST SALE,February-12-2018,Single Family Residential,3215 Wake Forest Hwy,Durham,NC,27703,95000,2,1.0,Durham,1041,28749,1940,830,91,,Sold,,,http://www.redfin.com/NC/Durham/3215-Holloway-St-27703/home/43561384,TMLS,2163527,N,Y,35.9849232,-78.8351822
PAST SALE,,Single Family Residential,2001 Angier Ave,Durham,NC,27703,65000,2,1.0,,1297,5358,1910,,50,,,,,http://www.redfin.com/NC/Durham/2001-Angier-Ave-27703/home/43527545,,,N,Y,35.982877,-78.8796856
PAST SALE,May-25-2018,Single Family Residential,223 End Ave,Durham,NC,27703,40000,3,1.0,Durham,1275,7448,1948,728,31,,Sold,,,http://www.redfin.com/NC/Durham/223-E-End-Ave-27703/home/43542030,TMLS,2179540,N,Y,35.9744193,-78.8615535
PAST SALE,,Single Family Residential,513 Bacon St,Durham,NC,27703,69000,3,2.0,,816,8581,1987,,85,,,,,http://www.redfin.com/NC/Durham/513-Bacon-St-27703/home/43535457,,,N,Y,35.9799075,-78.8825156
PAST SALE,,Single Family Residential,724 N Hardee St,Durham,NC,27703,55000,2,1.0,,884,19428,1950,,62,,,,,http://www.redfin.com/NC/Durham/724-N-Hardee-St-27703/home/43543800,,,N,Y,36.0046263,-78.8666397
PAST SALE,,Single Family Residential,915 Midway Ave,Durham,NC,27703,69000,3,1.5,,1321,19036,1965,,52,,,,,http://www.redfin.com/NC/Durham/915-Midway-Ave-27703/home/43541985,,,N,Y,35.9664217,-78.8579074
PAST SALE,August-19-2019,Single Family Residential,23 Plummer Pl,Durham,NC,27703,94000,3,1.0,Birchwood Heights,988,8712,1971,277,95,10,Sold,,,http://www.redfin.com/NC/Durham/23-Plummer-Pl-27703/home/43543196,TMLS,2267625,N,Y,35.9840994,-78.8461939
PAST SALE,,Multi-Family (2-4 Unit),611 N Maple St,Durham,NC,27703,100000,2,2.0,,900,6011,1980,,111,,,,,http://www.redfin.com/NC/Durham/611-N-Maple-St-27703/home/43525218,,,N,Y,35.9921341,-78.8808906
PAST SALE,,Single Family Residential,1123 Wellons Dr,Durham,NC,27703,85000,3,1.0,,1230,11674,1955,,69,,,,,http://www.redfin.com/NC/Durham/1123-Wellons-Dr-27703/home/43534875,,,N,Y,35.9952122,-78.8662085
PAST SALE,,Single Family Residential,1129 Raynor St,Durham,NC,27703,85000,3,1.0,,1070,10193,1955,,79,,,,,http://www.redfin.com/NC/Durham/1129-Raynor-St-27703/home/43533430,,,N,Y,35.9959763,-78.8670819
PAST SALE,August-12-2019,Single Family Residential,1612 Lathrop St,Durham,NC,27703,80000,2,1.0,Hillcrest,840,17424,1945,284,95,,Sold,,,http://www.redfin.com/NC/Durham/1612-Lathrop-St-27703/home/43531235,TMLS,2266526,N,Y,35.992377,-78.8734945
PAST SALE,,Single Family Residential,1024 Bacon St,Durham,NC,27703,85000,3,1.0,,1000,14941,1956,,85,,,,,http://www.redfin.com/NC/Durham/1024-Bacon-St-27703/home/43535045,,,N,Y,35.9702717,-78.8854783
PAST SALE,August-2-2019,Single Family Residential,510 End Ave,Durham,NC,27703,80000,2,1.0,Durham,1057,7927,1945,294,76,,Sold,,,http://www.redfin.com/NC/Durham/510-E-End-Ave-27703/home/43541618,TMLS,2230718,N,Y,35.9748328,-78.8665736
PAST SALE,,Single Family Residential,4011 Wake Forest Hwy,Durham,NC,27703,100000,2,1.0,,720,23914,2003,,139,,,,,http://www.redfin.com/NC/Durham/4011-Wake-Forest-Hwy-27703/home/43569034,,,N,Y,35.9801431,-78.8143391
PAST SALE,July-3-2017,Mobile/Manufactured Home,706 Hoverhill St,Durham,NC,27703,41600,3,2.0,Holder Heights,1200,20037,1982,1054,35,,Sold,,,http://www.redfin.com/NC/Durham/706-Hoverhill-St-27703/home/43564977,TMLS,2129132,N,Y,35.9725886,-78.8258987
PAST SALE,January-29-2019,Condo/Co-op,1511 Kendall Dr #703,Durham,NC,27703,74500,2,2.5,Park Place,950,,1989,479,78,110,Sold,,,http://www.redfin.com/NC/Durham/1511-Kendall-Dr-27703/unit-703/home/43561013,TMLS,2229496,N,Y,35.9693265,-78.8396957
PAST SALE,August-30-2018,Condo/Co-op,322 Junction Rd Unit 36A,Durham,NC,27703-2423,33000,2,1.0,Brentwood Park,960,,1987,631,34,130,Sold,,,http://www.redfin.com/NC/Durham/322-Junction-Rd-27703/unit-36A/home/43565648,TMLS,2209089,N,Y,35.993348,-78.853916
PAST SALE,May-1-2020,Townhouse,1513 Kendall Dr,Durham,NC,27703,84500,2,2.5,Park Place,1048,,1989,21,81,120,Sold,,,http://www.redfin.com/NC/Durham/1513-Kendall-Dr-27703/unit-702/home/43559956,TMLS,2295944,N,Y,35.9693265,-78.8396957
PAST SALE,June-7-2019,Single Family Residential,220 N Briggs Ave,Durham,NC,27703,90000,3,1.0,Durham,941,11238,1955,350,96,,Sold,,,http://www.redfin.com/NC/Durham/220-N-Briggs-Ave-27703/home/43528426,TMLS,2249901,N,Y,35.9881209,-78.8747088
PAST SALE,May-7-2019,Single Family Residential,1141 N Miami Blvd,Durham,NC,27703,64000,2,1.0,Durham,1078,11848,1945,381,59,,Sold,,,http://www.redfin.com/NC/Durham/1141-N-Miami-Blvd-27703/home/43528223,TMLS,2250977,N,Y,35.9959128,-78.8726726
PAST SALE,,Multi-Family (2-4 Unit),2313 Taylor St,Durham,NC,27703,85000,4,2.0,,1624,15899,1962,,52,,,,,http://www.redfin.com/NC/Durham/2313-Taylor-St-27703/home/43530868,,,N,Y,35.9889225,-78.8724774
PAST SALE,,Single Family Residential,500 Commonwealth St,Durham,NC,27703,75000,2,1.0,,1064,22346,1941,,70,,,,,http://www.redfin.com/NC/Durham/500-Commonwealth-St-27703/home/43541021,,,N,Y,35.9724262,-78.8631457
PAST SALE,September-26-2017,Single Family Residential,808 Midway Ave,Durham,NC,27703,99000,2,1.0,Durham,860,14026,1960,969,115,,Sold,,,http://www.redfin.com/NC/Durham/808-Midway-Ave-27703/home/43594973,TMLS,2144158,N,Y,35.9667406,-78.8550185
PAST SALE,July-16-2019,Condo/Co-op,322 Junction Rd Unit 42B,Durham,NC,27703,50000,2,1.0,Bentwood Park,948,435,1987,311,53,135,Sold,,,http://www.redfin.com/NC/Durham/322-Junction-Rd-27703/unit-42B/home/43565654,TMLS,2262993,N,Y,35.993348,-78.853916
PAST SALE,May-22-2020,Single Family Residential,610 Pleasant Dr,Durham,NC,27703,77875,2,1.0,Arey Spring Park,1316,13895,1939,1,59,,Sold,,,http://www.redfin.com/NC/Durham/610-Pleasant-Dr-27703/home/43560625,TMLS,2310928,N,Y,35.965624,-78.8511849
PAST SALE,,Multi-Family (2-4 Unit),2609 Ashe St,Durham,NC,27703,80000,4,2.0,,1308,11805,1932,,61,,,,,http://www.redfin.com/NC/Durham/2609-Ashe-St-27703/home/43528487,,,N,Y,35.9817547,-78.8704549
PAST SALE,February-7-2020,Single Family Residential,2015 Angier Ave,Durham,NC,27703,85000,3,2.0,Durham,1404,4225,1910,105,61,,Sold,,,http://www.redfin.com/NC/Durham/2015-Angier-Ave-27703/home/43531579,TMLS,2296999,N,Y,35.9825217,-78.8785801
PAST SALE,November-15-2018,Single Family Residential,2946 Carolyn Dr,Durham,NC,27703,85000,3,1.5,Cedar Hills,1006,9975,1985,554,84,,Sold,,,http://www.redfin.com/NC/Durham/2946-Carolyn-Dr-27703/home/43542568,TMLS,2211552,N,Y,35.9777475,-78.8504515
PAST SALE,,Single Family Residential,600 Currin St,Durham,NC,27703,70000,3,1.0,,1284,26833,1957,,55,,,,,http://www.redfin.com/NC/Durham/600-Currin-St-27703/home/43562415,,,N,Y,35.9749036,-78.8290843
PAST SALE,,Condo/Co-op,322 Junction Rd Unit 28A,Durham,NC,27703,35000,2,1.5,,1116,,1987,,31,,,,,http://www.redfin.com/NC/Durham/322-Junction-Rd-27703/unit-28A/home/43561155,,,N,Y,35.993348,-78.853916
PAST SALE,November-20-2018,Single Family Residential,1207 W Horseshoe Dr,Durham,NC,27703,95000,3,1.5,Durham,1066,19863,1962,549,89,,Sold,,,http://www.redfin.com/NC/Durham/1207-Horseshoe-Rd-27703/home/43563082,TMLS,2220437,N,Y,35.9651368,-78.8418255
PAST SALE,December-27-2018,Single Family Residential,604 S Mineral Springs Rd,Durham,NC,27703,85000,3,1.0,Oak Grove Heights,996,9191,1945,512,85,,Sold,,,http://www.redfin.com/NC/Durham/604-S-Mineral-Springs-Rd-27703/home/43563340,TMLS,2223354,N,Y,35.9746234,-78.8278897
PAST SALE,December-7-2018,Single Family Residential,115 Herbert St,Durham,NC,27703,80000,2,1.0,Hardee Heights,754,7405,1930,532,106,,Sold,,,http://www.redfin.com/NC/Durham/115-Herbert-St-27703/home/43541345,TMLS,2218805,N,Y,35.9906263,-78.8642072
PAST SALE,,Condo/Co-op,322 Junction Rd Unit 9D,Durham,NC,27703,29500,2,1.0,,960,,1986,,31,,,,,http://www.redfin.com/NC/Durham/322-Junction-Rd-27703/unit-9D/home/43564795,,,N,Y,35.993348,-78.853916
PAST SALE,,Single Family Residential,809 Glenco Rd,Durham,NC,27703,88000,3,1.0,,988,14898,1963,,89,,,,,http://www.redfin.com/NC/Durham/809-Glenco-Rd-27703/home/43568761,,,N,Y,35.9418475,-78.8340394
PAST SALE,August-30-2018,Condo/Co-op,322 Junction Rd Unit 28E,Durham,NC,27703,34000,2,1.5,Bentwood Park,1116,,1987,631,30,110,Sold,,,http://www.redfin.com/NC/Durham/322-Junction-Rd-27703/unit-28E/home/43565149,TMLS,2206437,N,Y,35.993348,-78.853916
PAST SALE,,Condo/Co-op,322 Junction Rd Unit 1A,Durham,NC,27703,35000,2,1.0,,960,,1986,,36,,,,,http://www.redfin.com/NC/Durham/322-Junction-Rd-27703/unit-1A/home/43594750,,,N,Y,35.993348,-78.853916
PAST SALE,,Condo/Co-op,322 Junction Rd Unit 3D,Durham,NC,27703,37000,2,1.0,,960,,1987,,39,,,,,http://www.redfin.com/NC/Durham/322-Junction-Rd-27703/unit-3D/home/43564788,,,N,Y,35.993348,-78.853916
PAST SALE,,Single Family Residential,306 S Guthrie Ave,Durham,NC,27703,68000,2,1.0,,1056,6055,1950,,64,,,,,http://www.redfin.com/NC/Durham/306-S-Guthrie-Ave-27703/home/43527551,,,N,Y,35.9822647,-78.8762805
PAST SALE,October-19-2017,Single Family Residential,1700 E Main St,Durham,NC,27701,70000,2,1.0,Durham,1160,5401,1900,946,60,,Sold,,,http://www.redfin.com/NC/Durham/1700-E-Main-St-27703/home/43527496,TMLS,2145937,N,Y,35.985195,-78.8824932
PAST SALE,February-27-2018,Single Family Residential,1101 Wellons Dr,Durham,NC,27703,63000,4,1.5,Wellons Village,1662,16117,1955,815,38,,Sold,,,http://www.redfin.com/NC/Durham/1101-Wellons-Dr-27703/home/43532905,TMLS,2173705,N,Y,35.9944049,-78.8677895
PAST SALE,June-23-2017,Single Family Residential,1601 Lathrop St,Durham,NC,27703,94000,3,1.0,Edgemont,1004,8842,1953,1064,94,,Sold,,,http://www.redfin.com/NC/Durham/1601-Lathrop-St-27703/home/43528245,TMLS,2124249,N,Y,35.9928087,-78.8740694
PAST SALE,,Multi-Family (2-4 Unit),1105 Alma St,Durham,NC,27703,85000,6,2.0,,2112,8930,1955,,40,,,,,http://www.redfin.com/NC/Durham/1105-Alma-St-27703/home/43527940,,,N,Y,35.9967473,-78.8758688
PAST SALE,,Condo/Co-op,322 Junction Rd Unit 1B,Durham,NC,27703,32500,2,1.0,,960,,1986,,34,,,,,http://www.redfin.com/NC/Durham/322-Junction-Rd-27703/unit-1B/home/43564278,,,N,Y,35.993348,-78.853916
PAST SALE,,Single Family Residential,505 Currin St,Durham,NC,27703,70000,3,1.0,,840,19341,1951,,83,,,,,http://www.redfin.com/NC/Durham/505-Currin-St-27703/home/43564934,,,N,Y,35.975665,-78.8279018
PAST SALE,,Single Family Residential,3417 WAKE FOREST HWY,,NC,,50000,2,2.5,,1505,25483,1969,,33,,,,,http://www.redfin.com/NC/Unknown/3417-WAKE-FOREST-HWY-Unknown/home/43560885,,,N,Y,35.983862,-78.829472
PAST SALE,,Single Family Residential,601 S Mineral Springs Rd,Durham,NC,27703,75000,2,1.0,,867,58458,1955,,87,,,,,http://www.redfin.com/NC/Durham/601-S-Mineral-Springs-Rd-27703/home/43562436,,,N,Y,35.9742514,-78.8261642
PAST SALE,,Single Family Residential,2016 Brooks Rd,Durham,NC,27703,52500,2,1.0,,816,22041,1952,,64,,,,,http://www.redfin.com/NC/Durham/2016-Brooks-Rd-27703/home/43559018,,,N,Y,35.9589057,-78.873196
PAST SALE,,Single Family Residential,1103 Delano St,Durham,NC,27703,55000,3,2.0,,1050,15856,1965,,52,,,,,http://www.redfin.com/NC/Durham/1103-Delano-St-27703/home/43533466,,,N,Y,35.9958333,-78.8694812
PAST SALE,September-10-2018,Single Family Residential,112 S Joyland Ave,Durham,NC,27703,75000,4,2.5,Woodcrest,1567,19602,1965,620,48,,Sold,,,http://www.redfin.com/NC/Durham/112-S-Joyland-St-27703/home/43541341,TMLS,2206174,N,Y,35.988656,-78.8552728
PAST SALE,,Single Family Residential,206 N Briggs Ave,Durham,NC,27703,85000,2,1.0,,1176,6098,1920,,72,,,,,http://www.redfin.com/NC/Durham/206-N-Briggs-Ave-27703/home/43528539,,,N,Y,35.9871262,-78.8747055
PAST SALE,,Single Family Residential,712 Bacon St,Durham,NC,27703,51100,2,1.0,,744,8015,1951,,69,,,,,http://www.redfin.com/NC/Durham/712-Bacon-St-27703/home/43531797,,,N,Y,35.9765818,-78.8848667
PAST SALE,,Single Family Residential,515 N Guthrie Ave,Durham,NC,27703,50000,2,1.0,,1151,6534,1949,,43,,,,,http://www.redfin.com/NC/Durham/515-N-Guthrie-Ave-27703/home/43527754,,,N,Y,35.9915031,-78.8767228
PAST SALE,,Condo/Co-op,322 Junction Rd Unit 10D,Durham,NC,27703,34500,2,1.0,,960,,1986,,36,,,,,http://www.redfin.com/NC/Durham/322-Junction-Rd-27703/unit-10D/home/43563256,,,N,Y,35.993348,-78.853916
PAST SALE,March-2-2018,Single Family Residential,4 Larch Ct,Durham,NC,27703-4700,95000,3,2.0,Hidden Hollow,1342,8407,1992,812,71,,Sold,,,http://www.redfin.com/NC/Durham/4-Larch-Ct-27703/home/43559019,TMLS,2120501,N,Y,35.9752429,-78.8376229
PAST SALE,,Vacant Land,5809 Wake Forest Hwy,Durham,NC,27703,100000,2,1.0,,770,30013,1957,,130,,,,,http://www.redfin.com/NC/Durham/5809-Wake-Forest-Hwy-27703/home/43586087,,,N,Y,35.9786657,-78.7669028
PAST SALE,November-9-2018,Multi-Family (2-4 Unit),306 Raynor St,Durham,NC,27703,85000,2,2.0,Durham,,9147,1955,560,,,Sold,,,http://www.redfin.com/NC/Durham/306-Raynor-St-27703/home/43528388,TMLS,2209004,N,Y,35.9877371,-78.8732734
PAST SALE,May-29-2018,Single Family Residential,2917 Wedgedale Dr,Durham,NC,27703,91500,3,1.0,Birchwood Heights,991,8232,1971,724,92,,Sold,,,http://www.redfin.com/NC/Durham/2917-Wedgedale-Ave-27703/home/43544121,TMLS,2191652,N,Y,35.9861535,-78.8461756
PAST SALE,,Multi-Family (2-4 Unit),2500 Ashe St,Durham,NC,27703,65000,4,2.0,,1792,10237,1968,,36,,,,,http://www.redfin.com/NC/Durham/2500-Ashe-St-27703/home/43531903,,,N,Y,35.9814885,-78.8729196
PAST SALE,July-31-2018,Single Family Residential,2306 Ashe St,Durham,NC,27703,98000,2,1.0,Durham,1134,7492,1920,661,86,,Sold,,,http://www.redfin.com/NC/Durham/2306-Ashe-St-27703/home/43530493,TMLS,2199670,N,Y,35.982092,-78.8745448
PAST SALE,September-20-2018,Condo/Co-op,322 Junction Rd Unit 38A,Durham,NC,27703,40000,2,1.0,Bentwood Park,960,,1986,610,42,135,Sold,,,http://www.redfin.com/NC/Durham/322-Junction-Rd-27703/unit-38A/home/43565118,TMLS,2202860,N,Y,35.993348,-78.853916
PAST SALE,,Single Family Residential,3513 Angier Ave,Durham,NC,27703,70000,3,1.0,,1188,17380,1940,,59,,,,,http://www.redfin.com/NC/Durham/3513-Angier-Ave-27703/home/43558756,,,N,Y,35.9625903,-78.8555403
PAST SALE,,Single Family Residential,2522 Holloway St,Durham,NC,27703,52000,3,1.0,,1414,17163,1930,,37,,,,,http://www.redfin.com/NC/Durham/2522-Holloway-St-27703/home/43541830,,,N,Y,35.9895574,-78.8563786
PAST SALE,,Condo/Co-op,322 Junction Rd Unit 41B,Durham,NC,27703,22000,2,1.0,,960,,1987,,23,,,,,http://www.redfin.com/NC/Durham/322-Junction-Rd-27703/unit-41B/home/43561147,,,N,Y,35.993348,-78.853916
PAST SALE,,Single Family Residential,3225 Holloway St,Durham,NC,27703,65000,5,1.0,,1716,78321,1925,,38,,,,,http://www.redfin.com/NC/Durham/3225-Holloway-St-27703/home/43561503,,,N,Y,35.9852477,-78.8339303
PAST SALE,,Single Family Residential,1418 Sherron Rd,Durham,NC,27703,88500,3,1.5,,1515,25265,1972,,58,,,,,http://www.redfin.com/NC/Durham/1418-Sherron-Rd-27703/home/43566045,,,N,Y,35.9584542,-78.8225361
PAST SALE,April-18-2019,Single Family Residential,117 S Hardee St,Durham,NC,27703,62000,3,1.0,Hardee Heights,2480,10323,1946,400,25,,Sold,,,http://www.redfin.com/NC/Durham/117-Hardee-St-27703/home/43540863,TMLS,2245548,N,Y,35.9906204,-78.8654898
PAST SALE,,Single Family Residential,1215 N Miami Blvd,Durham,NC,27703,55000,2,1.0,,890,9888,1940,,62,,,,,http://www.redfin.com/NC/Durham/1215-N-Miami-Blvd-27703/home/43528214,,,N,Y,35.9970582,-78.8733729
PAST SALE,,Multi-Family (2-4 Unit),1920 E Main St,Durham,NC,27703,87000,2,2.0,,902,7710,1984,,96,,,,,http://www.redfin.com/NC/Durham/1920-E-Main-St-27703/home/43531505,,,N,Y,35.9856116,-78.8793052
PAST SALE,February-22-2019,Condo/Co-op,322 Junction Rd Unit 42D,Durham,NC,27703,45000,2,1.0,Bentwood Park,960,871,1987,455,47,135,Sold,,,http://www.redfin.com/NC/Durham/322-Junction-Rd-27703/unit-42D/home/43565123,TMLS,2232895,N,Y,35.993348,-78.853916
PAST SALE,,Single Family Residential,314 E End Ave,Durham,NC,27703,50500,3,1.0,,936,7797,1940,,54,,,,,http://www.redfin.com/NC/Durham/314-E-End-Ave-27703/home/43541023,,,N,Y,35.9747922,-78.8635343
PAST SALE,September-20-2018,Condo/Co-op,322 Junction Rd Unit 20D,Durham,NC,27703,41500,2,1.0,Bentwood Park,960,,1986,610,43,135,Sold,,,http://www.redfin.com/NC/Durham/322-Junction-Rd-27703/unit-20D/home/43565692,TMLS,2202856,N,Y,35.993348,-78.853916
PAST SALE,,Single Family Residential,523 N Mineral Springs Rd,Durham,NC,27703,66000,4,2.0,,1596,16248,1984,,41,,,,,http://www.redfin.com/NC/Durham/523-N-Mineral-Springs-Rd-27703/home/43604924,,,N,Y,35.9900313,-78.8184653
PAST SALE,,Vacant Land,308 Santee Rd,Durham,NC,27704,90000,2,1.0,,1050,99578,1965,,86,,,,,http://www.redfin.com/NC/Durham/308-Santee-Rd-27704/home/43584543,,,N,Y,35.9955006,-78.769559
PAST SALE,,Single Family Residential,6012 Wake Forest Rd,Durham,NC,27703,45000,3,1.5,,1342,21998,1972,,34,,,,,http://www.redfin.com/NC/Durham/6012-Wake-Forest-Rd-27703/home/43585240,,,N,Y,35.9786687,-78.7623411
PAST SALE,April-9-2018,Single Family Residential,1504 Juniper St,Durham,NC,27703,93000,2,1.0,Durham,663,7056,1950,774,140,,Sold,,,http://www.redfin.com/NC/Durham/1504-Juniper-St-27703/home/43527883,TMLS,2181551,N,Y,35.9985294,-78.8751794
PAST SALE,,Multi-Family (2-4 Unit),1901 E Main St,Durham,NC,27703,18000,6,5.0,,2684,9627,2007,,7,,,,,http://www.redfin.com/NC/Durham/1901-E-Main-St-27703/home/43531645,,,N,Y,35.9860062,-78.8803563
PAST SALE,,Single Family Residential,2911 Wedgedale Ave,Durham,NC,27703,60000,2,1.0,,768,8276,1971,,78,,,,,http://www.redfin.com/NC/Durham/2911-Wedgedale-Ave-27703/home/43542115,,,N,Y,35.9863006,-78.846683
PAST SALE,,Single Family Residential,500 Walton St,Durham,NC,27703,55100,2,1.0,,960,8494,1971,,57,,,,,http://www.redfin.com/NC/Durham/500-Walton-St-27703/home/43542658,,,N,Y,35.981444,-78.8455309
PAST SALE,,Other,227 Bandock Dr,Durham,NC,27703,58000,,,,,42907,,,,,,,,http://www.redfin.com/NC/Durham/227-Bandock-Dr-27703/home/43585473,,,N,Y,35.972781,-78.7859819
PAST SALE,January-29-2019,Single Family Residential,108 Cushman St,Durham,NC,27703,100000,3,1.0,Birchwood,990,8712,1971,479,101,,Sold,,,http://www.redfin.com/NC/Durham/108-Cushman-St-27703/home/43543172,TMLS,2230021,N,Y,35.9845065,-78.8454972
PAST SALE,April-27-2018,Single Family Residential,3033 Wedgedale Ave,Durham,NC,27703,85000,3,1.0,Birchwood Heights,960,8276,1971,756,89,,Sold,,,http://www.redfin.com/NC/Durham/3033-Wedgedale-Ave-27703/home/43541576,TMLS,2184284,N,Y,35.9841306,-78.8437277
PAST SALE,May-16-2018,Single Family Residential,320 Benjamine St,Durham,NC,27703,77000,2,1.0,Durham,832,7753,1950,737,93,,Sold,,,http://www.redfin.com/NC/Durham/320-S-Benjamine-St-27703/home/43530995,TMLS,2156632,N,Y,35.982115,-78.8693257
PAST SALE,March-23-2018,Single Family Residential,15 Elaine Cir,Durham,NC,27703,85000,2,1.0,Durham,1040,20037,1979,791,82,,Sold,,,http://www.redfin.com/NC/Durham/15-Elaine-Cir-27703/home/43593897,TMLS,2170064,N,Y,35.9952218,-78.8451554
PAST SALE,June-13-2018,Single Family Residential,1107 Ellis Rd,Durham,NC,27703,59000,3,1.0,To Be Added,837,11630,1920,709,70,,Sold,,,http://www.redfin.com/NC/Durham/1107-Ellis-Rd-27703/home/43559675,TMLS,2191745,N,Y,35.9583234,-78.8721346
PAST SALE,November-15-2018,Single Family Residential,2950 Carolyn Dr,Durham,NC,27703,85000,3,1.5,Cedar Hills,1006,9975,1985,554,84,,Sold,,,http://www.redfin.com/NC/Durham/2950-Carolyn-Dr-27703/home/43542559,TMLS,2211548,N,Y,35.9774955,-78.8504515
PAST SALE,December-3-2018,Townhouse,336 Kilarney Dr,Durham,NC,27703,80000,2,1.5,Scotland Manor,1160,1568,1985,536,69,55,Sold,,,http://www.redfin.com/NC/Durham/336-Kilarney-Dr-27703/home/43544379,TMLS,2210584,N,Y,35.9913595,-78.8427877
PAST SALE,,Condo/Co-op,322 Junction Rd Unit 26B,Durham,NC,27703,27100,2,1.5,,1116,,1987,,24,,,,,http://www.redfin.com/NC/Durham/322-Junction-Rd-27703/unit-26B/home/43561627,,,N,Y,35.993348,-78.853916
PAST SALE,,Multi-Family (2-4 Unit),1704 E Pettigrew St,Durham,NC,27703,70000,2,2.0,,1264,8581,1910,,55,,,,,http://www.redfin.com/NC/Durham/1704-E-Pettigrew-St-27703/home/43535405,,,N,Y,35.9812329,-78.8836653
PAST SALE,,Multi-Family (2-4 Unit),1503 Lathrop St,Durham,NC,27703,100000,4,2.0,,1767,6708,1994,,57,,,,,http://www.redfin.com/NC/Durham/1503-Lathrop-St-27703/home/43527792,,,N,Y,35.9930917,-78.8753223
PAST SALE,,Single Family Residential,716 Bernice St,Durham,NC,27703,50000,2,1.0,,768,5793,1950,,65,,,,,http://www.redfin.com/NC/Durham/716-Bernice-St-27703/home/43532341,,,N,Y,35.9766094,-78.8858762
PAST SALE,,Vacant Land,611 S Felix St,Durham,NC,27703,10000,,,,,5097,,,,,,,,http://www.redfin.com/NC/Durham/611-S-Felix-St-27703/home/43596202,,,N,Y,35.984527,-78.863251
PAST SALE,June-5-2018,Vacant Land,234 Bandock Dr,Durham,NC,27703,3500,,,Shaw Hill Estates,,20081,,717,,,Sold,,,http://www.redfin.com/NC/Durham/234-Bandock-Dr-27703/home/43585487,TMLS,2188603,N,Y,35.972215,-78.786743
PAST SALE,May-23-2017,Single Family Residential,927 S Mineral Springs Rd,Durham,NC,27703,100000,3,1.0,Durham,945,17859,1956,1095,106,,Sold,,,http://www.redfin.com/NC/Durham/927-S-Mineral-Springs-Rd-27703/home/43564956,TMLS,2119230,N,Y,35.9687083,-78.8333316
PAST SALE,,Single Family Residential,2114 E Main St,Durham,NC,27703,55000,3,2.0,,1994,7797,2018,,28,,,,,http://www.redfin.com/NC/Durham/2114-E-Main-St-27703/home/43527539,,,N,Y,35.9856667,-78.8767861
PAST SALE,,Single Family Residential,2817 Ross Rd,Durham,NC,27703,57835,3,2.0,,1175,24263,1969,,49,,,,,http://www.redfin.com/NC/Durham/2817-Ross-Rd-27703/home/43543441,,,N,Y,35.9926534,-78.8450548
PAST SALE,,Townhouse,3127 Ivy Wood Ln,Durham,NC,27703,88000,2,1.5,,1152,1045,2006,,76,,,,,http://www.redfin.com/NC/Durham/3127-Ivy-Wood-Ln-27703/home/43597469,,,N,Y,35.971782,-78.846036
PAST SALE,July-16-2019,Single Family Residential,1345 Ellis Rd,Durham,NC,27703,90000,2,1.0,Durham,897,9147,1949,311,100,,Sold,,,http://www.redfin.com/NC/Durham/1345-Ellis-Rd-27703/home/43559681,TMLS,2221580,N,Y,35.9523142,-78.8703214
PAST SALE,,Condo/Co-op,322 Junction Rd Unit 28C,Durham,NC,27703,42000,2,1.5,,1116,,1987,,38,,,,,http://www.redfin.com/NC/Durham/322-Junction-Rd-27703/unit-28C/home/43561152,,,N,Y,35.993348,-78.853916
PAST SALE,April-29-2020,Townhouse,307 Kendall Dr #204,Durham,NC,27703,62000,2,2.0,Park Place,905,,1989,23,69,110,Sold,,,http://www.redfin.com/NC/Durham/307-Kendall-Dr-27703/unit-204/home/43559964,TMLS,2313210,N,Y,35.9693265,-78.8396957
PAST SALE,June-24-2019,Single Family Residential,513 Woods St,Durham,NC,27703,65000,3,2.0,Durham,924,8712,1985,333,70,,Sold,,,http://www.redfin.com/NC/Durham/513-Woods-St-27703/home/43542103,TMLS,2239001,N,Y,35.9731951,-78.8659763
PAST SALE,June-30-2017,Single Family Residential,1127 Delano St,Durham,NC,27703,77000,3,1.0,Wellons Village,1080,10846,1956,1057,71,,Sold,,,http://www.redfin.com/NC/Durham/1127-Delano-St-27703/home/43533467,TMLS,2122250,N,Y,35.9966691,-78.8678669
PAST SALE,,Single Family Residential,1147 Delano St,Durham,NC,27703,97500,2,1.0,,1050,14854,1956,,93,,,,,http://www.redfin.com/NC/Durham/1147-Delano-St-27703/home/43533472,,,N,Y,35.997427,-78.866319
PAST SALE,August-1-2019,Single Family Residential,1838 Liberty St,Durham,NC,27703,100000,3,1.0,Durham,768,7710,1955,295,130,,Sold,,,http://www.redfin.com/NC/Durham/1838-Liberty-St-27703/home/43528239,TMLS,2246519,N,Y,35.9901399,-78.8697797
PAST SALE,August-9-2019,Single Family Residential,903 Pleasant Dr,Durham,NC,27703,82000,2,1.0,Durham,831,8712,1954,287,99,,Sold,,,http://www.redfin.com/NC/Durham/903-Pleasant-Dr-27703/home/43604490,TMLS,2240014,N,Y,35.9636733,-78.8548372
PAST SALE,,Vacant Land,4503 Jimmy Rogers Rd,Durham,NC,27703,68000,3,2.0,,1508,42297,1975,,45,,,,,http://www.redfin.com/NC/Durham/4503-Jimmy-Rogers-Rd-27703/home/43593644,,,N,Y,36.0113105,-78.7920899
PAST SALE,,Single Family Residential,2824 Cheek Rd,Durham,NC,27704,47000,3,1.0,,904,6752,1950,,52,,,,,http://www.redfin.com/NC/Durham/2824-Cheek-Rd-27704/home/43566562,,,N,Y,36.006561,-78.8398585
PAST SALE,May-13-2019,Condo/Co-op,322 Junction Rd Unit 1C,Durham,NC,27703,42000,2,1.0,Brentwood Estates,960,,1986,375,44,135,Sold,,,http://www.redfin.com/NC/Durham/322-Junction-Rd-27703/unit-1C/home/43564280,TMLS,2251208,N,Y,35.993348,-78.853916
PAST SALE,October-15-2018,Condo/Co-op,322 Junction Rd Unit 42c,Durham,NC,27703,43500,2,1.0,Bentwood Park,936,435,1987,585,46,135,Sold,,,http://www.redfin.com/NC/Durham/322-Junction-Rd-27703/unit-42C/home/43565653,TMLS,2216473,N,Y,35.993348,-78.853916
PAST SALE,November-3-2017,Single Family Residential,1016 Sherron Rd,Durham,NC,27703,68000,2,1.0,Durham,1038,21780,1930,931,66,,Sold,,,http://www.redfin.com/NC/Durham/1016-Sherron-Rd-27703/home/43565490,TMLS,2154039,N,Y,35.9615367,-78.812895
PAST SALE,,Condo/Co-op,322 Junction Rd Unit 27G,Durham,NC,27703,20000,2,1.5,,1116,,1987,,18,,,,,http://www.redfin.com/NC/Durham/322-Junction-Rd-27703/unit-27G/home/43561628,,,N,Y,35.993348,-78.853916
PAST SALE,,Single Family Residential,2519 Riddle Rd,Durham,NC,27703,45000,2,1.0,,1718,15943,1935,,26,,,,,http://www.redfin.com/NC/Durham/2519-Riddle-Rd-27703/home/43558886,,,N,Y,35.9585949,-78.8759378
PAST SALE,,Single Family Residential,907 Grandview Dr,Durham,NC,27703,93000,3,2.5,,1442,10716,1987,,64,,,,,http://www.redfin.com/NC/Durham/907-Grandview-Dr-27703/home/43563415,,,N,Y,35.9959303,-78.8276243
PAST SALE,July-25-2019,Condo/Co-op,1505 Kendall Dr #0,Durham,NC,27703,90000,2,1.5,Park Place,1009,,1989,302,89,110,Sold,,,http://www.redfin.com/NC/Durham/1505-Kendall-Dr-27703/unit-802/home/43559959,TMLS,2249359,N,Y,35.9693265,-78.8396957
PAST SALE,July-27-2018,Multi-Family (2-4 Unit),201 Raynor St,Durham,NC,27703,97000,,,Durham,,4791,1956,665,,,Sold,,,http://www.redfin.com/NC/Durham/201-Raynor-St-27703/home/43529045,TMLS,2195290,N,Y,35.9869007,-78.8737599
PAST SALE,,Single Family Residential,702 Carter Ave,Durham,NC,27703,55000,1,1.0,,836,10934,1940,,66,,,,,http://www.redfin.com/NC/Durham/702-Carter-Ave-27703/home/43560109,,,N,Y,35.967669,-78.853232
PAST SALE,,Condo/Co-op,322 Junction Rd Unit 14B,Durham,NC,27703,34500,2,1.0,,960,,1986,,36,,,,,http://www.redfin.com/NC/Durham/322-Junction-Rd-27703/unit-14B/home/43561676,,,N,Y,35.993348,-78.853916
PAST SALE,,Single Family Residential,3040 Ross Rd,Durham,NC,27703,90500,2,1.0,,720,19515,1952,,126,,,,,http://www.redfin.com/NC/Durham/3040-Ross-Rd-27703/home/43543560,,,N,Y,35.9921477,-78.8392155
PAST SALE,,Single Family Residential,3223 Holloway St,Durham,NC,27703,75000,2,1.0,,1288,17990,1952,,58,,,,,http://www.redfin.com/NC/Durham/3223-Holloway-St-27703/home/43561494,,,N,Y,35.984896,-78.8344036
PAST SALE,,Vacant Land,4637 Angier Ave,Durham,NC,27703,75000,4,3.0,,1892,42776,1988,,40,,,,,http://www.redfin.com/NC/Durham/4637-Angier-Ave-27703/home/43565315,,,N,Y,35.9395688,-78.8240949
PAST SALE,December-13-2018,Single Family Residential,3040 Wedgedale Dr,Durham,NC,27703,80000,3,1.0,Durham,986,13939,1971,526,81,,Sold,,,http://www.redfin.com/NC/Durham/3040-Wedgedale-Ave-27703/home/43541578,TMLS,2223204,N,Y,35.9835161,-78.8440042
PAST SALE,,Single Family Residential,1208 Liberty St,Durham,NC,27703,90000,2,1.0,,784,4530,1930,,115,,,,,http://www.redfin.com/NC/Durham/1208-Liberty-St-27703/home/43527841,,,N,Y,35.9922887,-78.8792876
PAST SALE,,Single Family Residential,1605 Kilmer Ter,Durham,NC,27703,45000,4,1.0,,906,7449,1940,,50,,,,,http://www.redfin.com/NC/Durham/1605-Kilmer-Ter-27703/home/43528592,,,N,Y,35.9999769,-78.8744913
PAST SALE,,Single Family Residential,2404 Quincy St,Durham,NC,27703,60000,2,1.0,,950,9365,1959,,63,,,,,http://www.redfin.com/NC/Durham/2404-Quincy-St-27703/home/43528417,,,N,Y,35.9894,-78.8703988
PAST SALE,,Single Family Residential,1206 Ellis Rd,Durham,NC,27703,100000,2,1.0,,1674,15159,1947,,60,,,,,http://www.redfin.com/NC/Durham/1206-Ellis-Rd-27703/home/43561098,,,N,Y,35.9574152,-78.8733176
PAST SALE,,Multi-Family (2-4 Unit),1304 Holloway St,Durham,NC,27701,97000,4,2.0,,1526,6011,1940,,64,,,,,http://www.redfin.com/NC/Durham/1304-Holloway-St-27701/home/43527776,,,N,Y,35.994207,-78.8776929
PAST SALE,November-2-2018,Single Family Residential,819 Pleasant Dr,Durham,NC,27703,93000,3,1.0,Durham,1140,18730,1935,567,82,,Sold,,,http://www.redfin.com/NC/Durham/819-Pleasant-Dr-27703/home/43604486,TMLS,1987390,N,Y,35.9637481,-78.8545044
PAST SALE,September-19-2019,Vacant Land,1205 W Horseshoe Rd,Durham,NC,27703-5205,60000,,,Durham,,21693,,246,,,Sold,,,http://www.redfin.com/NC/Durham/1205-Horseshoe-Rd-27703/home/43564596,TMLS,2275352,N,Y,35.9648889,-78.8418698
PAST SALE,,Single Family Residential,204 Currin St,Durham,NC,27703,50000,2,2.0,,1276,141788,1955,,39,,,,,http://www.redfin.com/NC/Durham/204-Currin-St-27703/home/43562859,,,N,Y,35.9782032,-78.8262084
PAST SALE,March-22-2019,Single Family Residential,1117 Liberty St,Durham,NC,27703,89000,2,1.0,Markham,1064,6926,1902,427,84,,Sold,,,http://www.redfin.com/NC/Durham/1117-Liberty-St-27703/home/43525331,TMLS,2241131,N,Y,35.9927193,-78.8802769
PAST SALE,December-5-2018,Single Family Residential,1238 N Miami Blvd,Durham,NC,27703,75000,2,1.0,Alta Vista,904,6882,1939,534,83,,Sold,,,http://www.redfin.com/NC/Durham/1238-N-Miami-Blvd-27703/home/43528111,TMLS,2221689,N,Y,35.9986573,-78.8738594
PAST SALE,January-3-2020,Single Family Residential,2518 Ross Rd,Durham,NC,27703,83000,2,1.0,Durham,1056,22825,1945,140,79,,Sold,,,http://www.redfin.com/NC/Durham/2518-Ross-Rd-27703/home/43595418,TMLS,2289947,N,Y,35.9922004,-78.8550074
PAST SALE,January-27-2020,Multi-Family (2-4 Unit),1108 N Guthrie Ave,Durham,NC,27703,89000,2,2.0,Durham,1196,10062,1940,116,74,,Sold,,,http://www.redfin.com/NC/Durham/1108-N-Guthrie-Ave-27703/home/43528693,TMLS,2294831,N,Y,35.9966086,-78.8742905
PAST SALE,,Single Family Residential,2818 Dodson St,Durham,NC,27703,85000,2,1.0,,912,10846,1956,,93,,,,,http://www.redfin.com/NC/Durham/2818-Dodson-St-27703/home/43542232,,,N,Y,35.9990101,-78.8488148
PAST SALE,February-21-2020,Single Family Residential,2921 Angier Ave,Durham,NC,27703,97000,3,1.0,Durham,1089,6838,1940,91,89,,Sold,,,http://www.redfin.com/NC/Durham/2921-Angier-Ave-27703/home/43541627,TMLS,2290472,N,Y,35.973479,-78.8672146
PAST SALE,,Single Family Residential,409 N Guthrie Ave,Durham,NC,27703,75000,3,1.0,,1547,15377,1928,,48,,,,,http://www.redfin.com/NC/Durham/409-N-Guthrie-Ave-27703/home/43527807,,,N,Y,35.989557,-78.876981
PAST SALE,,Single Family Residential,307 S Benjamine St,Durham,NC,27703,54500,2,1.0,,880,16988,1947,,62,,,,,http://www.redfin.com/NC/Durham/307-S-Benjamine-St-27703/home/43533608,,,N,Y,35.9827953,-78.8688178
PAST SALE,,Single Family Residential,1121 Raynor St,Durham,NC,27703,79000,3,1.0,,1095,9757,1954,,72,,,,,http://www.redfin.com/NC/Durham/1121-Raynor-St-27703/home/43534883,,,N,Y,35.99569,-78.8676126
PAST SALE,,Single Family Residential,201 S Guthrie Ave,Durham,NC,27703,70000,2,1.0,,1076,7710,1910,,65,,,,,http://www.redfin.com/NC/Durham/201-S-Guthrie-Ave-27703/home/43531518,,,N,Y,35.9841438,-78.8758273
PAST SALE,April-20-2018,Single Family Residential,2210 Southgate St,Durham,NC,27703,88000,3,2.0,Durham,1000,9757,1955,763,88,,Sold,,,http://www.redfin.com/NC/Durham/2210-Southgate-St-27703/home/43530412,TMLS,2177600,N,Y,35.9901515,-78.8738226
PAST SALE,,Single Family Residential,1608 Holloway St,Durham,NC,27703,71000,1,1.0,,918,13504,1945,,77,,,,,http://www.redfin.com/NC/Durham/1608-Holloway-St-27703/home/43531230,,,N,Y,35.9933476,-78.8730965
PAST SALE,February-14-2018,Condo/Co-op,322 Junction Rd Unit 37B,Durham,NC,27703,25000,2,1.0,Bentwood Park,960,,1987,828,26,110,Sold,,,http://www.redfin.com/NC/Durham/322-Junction-Rd-27703/unit-37B/home/43564627,TMLS,2172064,N,Y,35.993348,-78.853916
PAST SALE,,Single Family Residential,1616 Kilmer Ter,Durham,NC,27703,94000,3,1.0,,906,16204,1940,,104,,,,,http://www.redfin.com/NC/Durham/1616-Kilmer-Ter-27703/home/43528096,,,N,Y,36.0000867,-78.8733176
PAST SALE,,Single Family Residential,2001 Ashe St,Durham,NC,27703,70000,2,1.0,,790,7057,1940,,89,,,,,http://www.redfin.com/NC/Durham/2001-Ashe-St-27703/home/43530633,,,N,Y,35.9835366,-78.8795529
PAST SALE,March-14-2018,Single Family Residential,2011 Angier Ave,Durham,NC,27701,68000,2,1.0,Durham,1061,8015,1910,800,64,,Sold,,,http://www.redfin.com/NC/Durham/2011-Angier-Ave-27703/home/43531095,TMLS,2173878,N,Y,35.9826116,-78.8789762
PAST SALE,,Single Family Residential,1119 Eva St,Durham,NC,27703,67000,3,2.0,,1380,4400,1930,,49,,,,,http://www.redfin.com/NC/Durham/1119-Eva-St-27703/home/43525841,,,N,Y,35.993726,-78.880285
PAST SALE,,Single Family Residential,403 N Hyde Park Ave,Durham,NC,27703,67000,2,1.0,,720,5619,1948,,93,,,,,http://www.redfin.com/NC/Durham/403-N-Hyde-Park-Ave-27703/home/43525280,,,N,Y,35.9890595,-78.8820292
PAST SALE,,Single Family Residential,212 Hickory Glen Ln,Durham,NC,27703,77000,3,2.0,,1106,11282,1998,,70,,,,,http://www.redfin.com/NC/Durham/212-Hickory-Glen-Ln-27703/home/43541994,,,N,Y,35.9846691,-78.8499207
PAST SALE,,Single Family Residential,3508 Carr Rd,Durham,NC,27703,65000,3,2.0,,1152,27966,1971,,56,,,,,http://www.redfin.com/NC/Durham/3508-Carr-Rd-27703/home/43541861,,,N,Y,35.9810589,-78.8521766
PAST SALE,March-2-2018,Condo/Co-op,322 Junction Rd Unit 22A,Durham,NC,27703,33000,2,1.0,Bentwood Park,960,,1987,812,34,110,Sold,,,http://www.redfin.com/NC/Durham/322-Junction-Rd-27703/unit-22A/home/43565107,TMLS,2172566,N,Y,35.993348,-78.853916
PAST SALE,May-4-2018,Single Family Residential,217 Southerland St,Durham,NC,27703,60000,2,1.0,Durham,985,17816,1950,749,61,,Sold,,,http://www.redfin.com/NC/Durham/217-Southerland-St-27703/home/43561621,TMLS,2177752,N,Y,35.9949815,-78.860492
PAST SALE,,Condo/Co-op,322 Junction Rd Unit 21D,Durham,NC,27703,26000,2,1.0,,960,,1987,,27,,,,,http://www.redfin.com/NC/Durham/322-Junction-Rd-27703/unit-21D/home/43561186,,,N,Y,35.993348,-78.853916
PAST SALE,,Single Family Residential,219 Southerland St,Durham,NC,27703,33500,2,1.5,,1128,17903,1955,,30,,,,,http://www.redfin.com/NC/Durham/219-Southerland-St-27703/home/43561622,,,N,Y,35.9951915,-78.860492
PAST SALE,March-2-2018,Condo/Co-op,322 Junction Rd Unit 21B,Durham,NC,27703,27000,2,1.0,Bentwood Park,960,,1987,812,28,110,Sold,,,http://www.redfin.com/NC/Durham/322-Junction-Rd-27703/unit-21B/home/43565694,TMLS,2172745,N,Y,35.993348,-78.853916
PAST SALE,December-11-2017,Mobile/Manufactured Home,708 Hazelwood Dr,Durham,NC,27703,98000,2,2.0,Durham,1463,18382,1982,893,67,,Sold,,,http://www.redfin.com/NC/Durham/708-Hazelwood-Dr-27703/home/43563430,TMLS,2161477,N,Y,35.9718653,-78.824682
PAST SALE,April-23-2018,Single Family Residential,1401 Lynn Rd,Durham,NC,27703,71000,3,1.0,Arey Spring Park,1164,22607,1945,760,61,,Sold,,,http://www.redfin.com/NC/Durham/1401-Lynn-Rd-27703/home/43603875,TMLS,2182745,N,Y,35.9661882,-78.8511905
