SALE TYPE,SOLD DATE,PROPERTY TYPE,ADDRESS,CITY,STATE OR PROVINCE,ZIP OR POSTAL CODE,PRICE,BEDS,BATHS,LOCATION,SQUARE FEET,LOT SIZE,YEAR BUILT,DAYS ON MARKET,$/SQUARE FEET,HOA/MONTH,STATUS,NEXT OPEN HOUSE START TIME,NEXT OPEN HOUSE END TIME,URL (SEE http://www.redfin.com/buy-a-home/comparative-market-analysis FOR INFO ON PRICING),SOURCE,MLS#,FAVORITE,INTERESTED,LATITUDE,LONGITUDE
PAST SALE,December-4-2017,Single Family Residential,5815 Kiltshire Rd,Durham,NC,27712,280500,4,2.5,Heather Glen,2270,69216,1988,900,124,,Sold,,,http://www.redfin.com/NC/Durham/5815-Kiltshire-Rd-27712/home/43578725,TMLS,2155331,N,Y,36.0949131,-78.9643956
PAST SALE,September-22-2017,Single Family Residential,4618 Paces Ferry Dr,Durham,NC,27712,290000,4,3.0,Ashfield Place,2812,10497,2003,973,103,55,Sold,,,http://www.redfin.com/NC/Durham/4618-Paces-Ferry-Dr-27712/home/43599652,TMLS,2144980,N,Y,36.0935266,-78.9304825
PAST SALE,October-2-2017,Single Family Residential,445 Walsenburg Dr,Durham,NC,27712,225000,5,2.5,Madison Glen,2065,6229,2014,963,109,40,Sold,,,http://www.redfin.com/NC/Durham/445-Walsenburg-Dr-27712/home/43612164,TMLS,2148067,N,Y,36.0935228,-78.9193874
PAST SALE,,Single Family Residential,10 Shelburn Ct,Durham,NC,27712,207000,4,2.0,,1904,18513,1997,,109,,,,,http://www.redfin.com/NC/Durham/10-Shelburn-Ct-27712/home/43578290,,,N,Y,36.0883474,-78.8792434
PAST SALE,October-25-2017,Single Family Residential,5702 Craig Rd,Durham,NC,27712,235000,4,2.5,Split Rail,2137,130680,1977,940,110,,Sold,,,http://www.redfin.com/NC/Durham/5702-Craig-Rd-27712/home/43577429,TMLS,2138378,N,Y,36.0840705,-78.9760826
PAST SALE,November-1-2017,Single Family Residential,4816 Northbury Cir,Durham,NC,27712-2647,215000,4,2.5,Huntington Place,2252,38768,1972,933,95,,Sold,,,http://www.redfin.com/NC/Durham/4816-Northbury-Cir-27712/home/43578072,TMLS,2147227,N,Y,36.0779107,-78.936133
PAST SALE,June-16-2017,Single Family Residential,1704 Autumn Ridge Dr,Durham,NC,27712,295000,4,2.5,Autumn Ridge,3052,9583,2003,1071,97,15,Sold,,,http://www.redfin.com/NC/Durham/1704-Autumn-Ridge-Dr-27712/home/43589347,TMLS,2124728,N,Y,36.0861735,-78.9420091
PAST SALE,March-18-2018,Single Family Residential,7 Summer Ridge Ct,Durham,NC,27712,274900,4,2.5,Dover Ridge,2176,12196,1997,796,126,14,Sold,,,http://www.redfin.com/NC/Durham/7-Summer-Rdg-27712/home/43594445,TMLS,2171202,N,Y,36.0888924,-78.9313769
PAST SALE,September-20-2018,Single Family Residential,6231 Dello St,Durham,NC,27712-1505,218000,4,2.0,Milton Forest,2108,33454,1974,610,103,,Sold,,,http://www.redfin.com/NC/Durham/6231-Dello-St-27712/home/43586484,TMLS,2203243,N,Y,36.115905,-78.9215091
PAST SALE,April-12-2019,Single Family Residential,9 Otters Run,Durham,NC,27712,286000,4,2.5,Trappers Creek,2350,36154,1996,406,122,,Sold,,,http://www.redfin.com/NC/Durham/9-Otters-Run-27712/home/43581212,TMLS,2227469,N,Y,36.0768088,-78.9480264
PAST SALE,June-1-2018,Single Family Residential,824 Briana Dr,Durham,NC,27703,265000,4,2.5,Madison Glen,2700,6359,2014,721,98,40,Sold,,,http://www.redfin.com/NC/Durham/824-Briana-Dr-27712/home/43611179,TMLS,2196114,N,Y,36.094581,-78.9185918
PAST SALE,April-29-2019,Single Family Residential,406 Hidden Treasure Dr,Durham,NC,27712,281000,4,2.5,Madison Glen,2826,9147,2010,389,99,44,Sold,,,http://www.redfin.com/NC/Durham/406-Hidden-Treasure-Dr-27712/home/43610292,TMLS,2242767,N,Y,36.097449,-78.9165142
PAST SALE,May-7-2019,Single Family Residential,5105 Raintree Rd,Durham,NC,27712-1913,225000,4,2.0,Havenhill,3522,26528,1977,381,64,,Sold,,,http://www.redfin.com/NC/Durham/5105-Raintree-Rd-27712/home/43577788,TMLS,2232499,N,Y,36.0789563,-78.9555604
PAST SALE,August-6-2019,Single Family Residential,827 Briana Dr,Durham,NC,27712-1388,251000,4,2.5,Madison Glen,1972,9713,2014,290,127,40,Sold,,,http://www.redfin.com/NC/Durham/827-Briana-Dr-27712/home/43611683,TMLS,2263030,N,Y,36.0942167,-78.9182824
PAST SALE,October-18-2018,Single Family Residential,1129 Kimball Dr,Durham,NC,27712,226200,4,2.5,Durham,1877,26136,1973,582,121,,Sold,,,http://www.redfin.com/NC/Durham/1129-Kimball-Dr-27712/home/43571943,TMLS,2210841,N,Y,36.0446752,-78.9612381
PAST SALE,October-10-2017,Single Family Residential,5237 Inverness Dr,Durham,NC,27712,285000,4,3.0,Willowhaven,2350,44344,1977,955,121,,Sold,,,http://www.redfin.com/NC/Durham/5237-Inverness-Dr-27712/home/43577408,TMLS,2146056,N,Y,36.0805428,-78.9672248
PAST SALE,May-15-2018,Single Family Residential,1208 Donphil Rd,Durham,NC,27712,239900,4,2.5,Brogden Heights,1730,21780,1964,738,139,,Sold,,,http://www.redfin.com/NC/Durham/1208-Donphil-Rd-27712/home/43578358,TMLS,2180110,N,Y,36.0808276,-78.9250562
PAST SALE,August-31-2017,Single Family Residential,1708 Autumn Rdg,Durham,NC,27712,268000,4,2.5,Autumn Ridge,2796,12109,2002,995,96,15,Sold,,,http://www.redfin.com/NC/Durham/1708-Autumn-Ridge-Dr-27712/home/43588348,TMLS,2143151,N,Y,36.0864506,-78.9424934
PAST SALE,July-19-2017,Single Family Residential,8 Queensland Ct,Durham,NC,27712,300000,4,3.0,Autumn Ridge,3250,18295,2001,1038,92,15,Sold,,,http://www.redfin.com/NC/Durham/8-Queensland-Ct-27712/home/43588589,TMLS,2130677,N,Y,36.0840594,-78.9357655
PAST SALE,November-2-2017,Single Family Residential,512 Birchrun Dr,Durham,NC,27712,201500,4,2.5,Madison Glen,1719,6098,2010,932,117,40,Sold,,,http://www.redfin.com/NC/Durham/512-Birchrun-Dr-27712/home/43612803,TMLS,2151180,N,Y,36.0963811,-78.9181056
PAST SALE,February-28-2018,Single Family Residential,511 Grist Mill Ln,Durham,NC,27712,240000,4,2.5,Stephens Woods,3150,22651,1992,814,76,,Sold,,,http://www.redfin.com/NC/Durham/511-Grist-Mill-Ln-27712/home/43576846,TMLS,2133661,N,Y,36.0824486,-78.9013954
PAST SALE,December-4-2017,Single Family Residential,1308 Country Club Dr,Durham,NC,27712,233000,4,2.5,Country Club Heights,1735,13503,2001,900,134,22,Sold,,,http://www.redfin.com/NC/Durham/1308-Country-Club-Dr-27712/home/43589078,TMLS,2153780,N,Y,36.075137,-78.9747573
PAST SALE,May-4-2018,Single Family Residential,5303 Paces Ferry Dr,Durham,NC,27712,294000,4,3.0,Ashfield Place,2926,10890,2006,749,100,55,Sold,,,http://www.redfin.com/NC/Durham/5303-Paces-Ferry-Dr-27712/home/43606798,TMLS,2170633,N,Y,36.0918493,-78.928928
PAST SALE,May-4-2018,Single Family Residential,114 Fairntosh Pl,Durham,NC,27712-1012,265000,4,2.5,Heather Glen,2529,22215,1977,749,105,,Sold,,,http://www.redfin.com/NC/Durham/114-Fairntosh-Pl-27712/home/43578432,TMLS,2181852,N,Y,36.0893649,-78.9608389
PAST SALE,June-29-2018,Single Family Residential,5126 Lansdowne Dr,Durham,NC,27712,289000,4,3.0,Haven Hill,2863,23958,1973,693,101,,Sold,,,http://www.redfin.com/NC/Durham/5126-Lansdowne-Dr-27712/home/43575740,TMLS,2153640,N,Y,36.0803377,-78.9531728
PAST SALE,May-30-2018,Single Family Residential,4 Foxlair Ct,Durham,NC,27712-3042,280000,4,2.5,Fieldstone by the Eno,2223,14941,1998,723,126,12,Sold,,,http://www.redfin.com/NC/Durham/4-Foxlair-Ct-27712/home/43576235,TMLS,2179731,N,Y,36.066796,-78.9485733
PAST SALE,April-6-2018,Single Family Residential,4115 Lazyriver Ln,Durham,NC,27712,272000,4,2.5,Eno Trace,2574,13198,1987,777,106,29,Sold,,,http://www.redfin.com/NC/Durham/4115-Lazyriver-Ln-27712/home/43577640,TMLS,2177344,N,Y,36.0791023,-78.8920665
PAST SALE,February-22-2018,Single Family Residential,200 Infinity Rd,Durham,NC,27712,147000,4,2.0,River Forest,1477,15594,1971,820,100,,Sold,,,http://www.redfin.com/NC/Durham/200-Infinity-Rd-27712/home/43575863,TMLS,2171718,N,Y,36.0778881,-78.9066901
PAST SALE,June-25-2018,Single Family Residential,3010 Elk Ridge Rd,Durham,NC,27712,295000,4,2.5,BuckWtr Creek,2041,10454,1994,697,145,12,Sold,,,http://www.redfin.com/NC/Durham/3010-Elk-Ridge-Rd-27712/home/43577584,TMLS,2192640,N,Y,36.0641765,-78.9516057
PAST SALE,,Single Family Residential,802 Goodwin Rd,Durham,NC,27712,200000,3,2.0,,2175,118091,1965,,92,,,,,http://www.redfin.com/NC/Durham/802-Goodwin-Rd-27712/home/43578082,,,N,Y,36.0919669,-78.892109
PAST SALE,July-13-2018,Single Family Residential,5024 Mckittrick Ln,Durham,NC,27712,282500,5,3.0,Latta Woods,3043,10018,2006,679,93,27,Sold,,,http://www.redfin.com/NC/Durham/5024-McKittrick-Ln-27712/home/43592457,TMLS,2165288,N,Y,36.0796009,-78.9156081
PAST SALE,November-27-2017,Single Family Residential,2305 Dawn Trl,Durham,NC,27712,278000,4,2.5,Placid Valley,2234,26745,1977,907,124,,Sold,,,http://www.redfin.com/NC/Durham/2305-Dawn-Trl-27712/home/43576080,TMLS,2147397,N,Y,36.0691066,-78.9602992
PAST SALE,August-21-2017,Single Family Residential,5012 Raintree Rd,Durham,NC,27712,292500,4,3.0,Havenhill,2297,23958,1975,1005,127,,Sold,,,http://www.redfin.com/NC/Durham/5012-Raintree-Rd-27712/home/43577309,TMLS,2130352,N,Y,36.076904,-78.9549197
PAST SALE,July-18-2018,Single Family Residential,6515 Ladd Dr,Durham,NC,27712,225000,4,3.0,Eden Lakes,1898,48787,1976,674,119,,Sold,,,http://www.redfin.com/NC/Durham/6515-Ladd-Dr-27712/home/43584723,TMLS,2192519,N,Y,36.1173203,-78.9065679
PAST SALE,,Single Family Residential,3204 Wilderness Rd,Durham,NC,27712,298000,4,2.5,,2300,9975,1998,,130,,,,,http://www.redfin.com/NC/Durham/3204-Wilderness-Rd-27712/home/43576804,,,N,Y,36.0662914,-78.9503907
PAST SALE,November-1-2018,Single Family Residential,1915 Redding Ln,Durham,NC,27712,244000,4,3.0,Greymoss,1977,30492,1978,568,123,,Sold,,,http://www.redfin.com/NC/Durham/1915-Redding-Ln-27712/home/43578476,TMLS,2197500,N,Y,36.0819009,-78.9463914
PAST SALE,December-19-2019,Single Family Residential,2804 Fox Dr,Durham,NC,27712,231000,4,2.0,Willow Ridge,1975,33976,1978,155,117,,Sold,,,http://www.redfin.com/NC/Durham/2804-Fox-Dr-27712/home/43575987,TMLS,2272181,N,Y,36.0779225,-78.974934
PAST SALE,June-25-2019,Single Family Residential,615 Grist Mill Ln,Durham,NC,27712,282000,4,2.5,Stephens Woods,2311,16857,1987,332,122,,Sold,,,http://www.redfin.com/NC/Durham/615-Grist-Mill-Ln-27712/home/43576870,TMLS,2250871,N,Y,36.0821855,-78.8984664
PAST SALE,January-11-2019,Single Family Residential,413 Loblolly Dr,Durham,NC,27712,290000,5,2.5,Treyburn,2540,12632,2004,497,114,46,Sold,,,http://www.redfin.com/NC/Durham/413-Loblolly-Dr-27712/home/43584806,TMLS,2215471,N,Y,36.1258075,-78.853017
PAST SALE,September-27-2019,Single Family Residential,1518 Bramble Dr,Durham,NC,27712,240000,4,2.5,Willow Hill,2085,21780,1978,238,115,,Sold,,,http://www.redfin.com/NC/Durham/1518-Bramble-Dr-27712/home/43579353,TMLS,2273271,N,Y,36.0953745,-78.9397184
PAST SALE,October-4-2019,Single Family Residential,214 Loblolly Dr,Durham,NC,27712,294000,4,2.5,Treyburn,2532,10890,2002,231,116,46,Sold,,,http://www.redfin.com/NC/Durham/214-Loblolly-Dr-27712/home/43584737,TMLS,2270284,N,Y,36.1288406,-78.8549632
PAST SALE,August-14-2018,Single Family Residential,1312 Shady Ln,Durham,NC,27712,236000,4,2.5,Kenwood Acres,1805,24393,1978,647,131,,Sold,,,http://www.redfin.com/NC/Durham/1312-Shady-Ln-27712/home/43581220,TMLS,2204561,N,Y,36.088163,-78.8863516
PAST SALE,August-9-2018,Single Family Residential,5732 Greenbay Dr,Durham,NC,27712,260000,4,3.0,Woodland Park,2895,29925,1976,652,90,,Sold,,,http://www.redfin.com/NC/Durham/5732-Greenbay-Dr-27712/home/43581923,TMLS,2198650,N,Y,36.0978147,-78.923023
PAST SALE,,Single Family Residential,303 Cheryl Ave,Durham,NC,27712,270000,4,2.5,,3100,19994,1966,,87,,,,,http://www.redfin.com/NC/Durham/303-Cheryl-Ave-27712/home/43578127,,,N,Y,36.0856121,-78.904289
PAST SALE,,Single Family Residential,230 Smith Dr,Durham,NC,27712,273000,5,4.0,,3006,20952,1973,,91,,,,,http://www.redfin.com/NC/Durham/230-Smith-Dr-27712/home/43581484,,,N,Y,36.100549,-78.9025449
PAST SALE,May-30-2018,Single Family Residential,316 Crestview Dr,Durham,NC,27712,248000,4,2.5,Hickory Ridge,2028,46173,1997,723,122,,Sold,,,http://www.redfin.com/NC/Durham/316-Crestview-Dr-27712/home/43578672,TMLS,2187805,N,Y,36.0839449,-78.902147
PAST SALE,August-7-2018,Single Family Residential,414 Loblolly Dr,Durham,NC,27712,300000,4,2.5,Treyburn,2740,12283,1993,654,109,44,Sold,,,http://www.redfin.com/NC/Durham/414-Loblolly-Dr-27712/home/43586305,TMLS,2195833,N,Y,36.1254768,-78.8526189
PAST SALE,December-21-2018,Single Family Residential,612 Birchrun Dr,Durham,NC,27712,281000,5,4.0,Madison Glen,2790,8537,2013,518,101,40,Sold,,,http://www.redfin.com/NC/Durham/612-Birchrun-Dr-27712/home/43611643,TMLS,2222533,N,Y,36.096194,-78.9196969
PAST SALE,August-9-2019,Single Family Residential,3 Danforth Pl,Durham,NC,27712,282500,4,2.5,Stephens Woods,2696,17859,1990,287,105,,Sold,,,http://www.redfin.com/NC/Durham/3-Danforth-Pl-27712/home/43575435,TMLS,2262836,N,Y,36.0839194,-78.896705
PAST SALE,June-20-2019,Single Family Residential,437 Walsenburg Dr,Durham,NC,27712-1370,252500,5,3.0,Madison Glen,2035,6098,2014,337,124,40,Sold,,,http://www.redfin.com/NC/Durham/437-Walsenburg-Dr-27712/home/43611173,TMLS,2253019,N,Y,36.0935885,-78.9189675
PAST SALE,June-9-2017,Single Family Residential,410 Birchrun Dr,Durham,NC,27712,245000,4,2.5,Madison Glen,2321,7013,2010,1078,106,40,Sold,,,http://www.redfin.com/NC/Durham/410-Birchrun-Dr-27712/home/43610327,TMLS,2124761,N,Y,36.0964024,-78.9165226
PAST SALE,July-31-2017,Single Family Residential,1702 Cheshire Bridge Dr,Durham,NC,27712,257000,4,2.5,Dover Ridge,2157,10454,1998,1026,119,12,Sold,,,http://www.redfin.com/NC/Durham/1702-Cheshire-Bridge-Rd-27712/home/43581017,TMLS,2126403,N,Y,36.0878709,-78.9303048
PAST SALE,November-2-2017,Townhouse,101 Villa Dr,Durham,NC,27712,282500,4,2.5,Treyburn,2852,3920,1993,932,99,379,Sold,,,http://www.redfin.com/NC/Durham/101-Villa-Dr-27712/home/43586261,TMLS,2133487,N,Y,36.122945,-78.864139
PAST SALE,November-9-2017,Single Family Residential,1217 Pointe Dr,Durham,NC,27712,296000,4,2.5,Treyburn,2790,12196,1994,925,106,46,Sold,,,http://www.redfin.com/NC/Durham/1217-E-Pointe-Dr-27712/home/43584347,TMLS,2133832,N,Y,36.1263074,-78.8605805
PAST SALE,December-28-2017,Single Family Residential,2416 Mont Haven Dr,Durham,NC,27712,300000,4,2.0,Willowhaven,2141,19602,1977,876,140,,Sold,,,http://www.redfin.com/NC/Durham/2416-Mont-Haven-Dr-27712/home/43576401,TMLS,2155195,N,Y,36.0850738,-78.9602219
PAST SALE,October-16-2017,Single Family Residential,2039 Bayleaf Dr,Durham,NC,27712-2019,285000,4,3.0,Greymoss,2592,21997,1978,949,110,,Sold,,,http://www.redfin.com/NC/Durham/2039-Bayleaf-Dr-27712/home/43580984,TMLS,2137665,N,Y,36.0826144,-78.9498037
PAST SALE,December-5-2017,Single Family Residential,507 Continental Dr,Durham,NC,27712,252000,4,3.0,Willowhaven,2034,32713,1967,899,124,,Sold,,,http://www.redfin.com/NC/Durham/507-Continental-Dr-27712/home/43576581,TMLS,2143299,N,Y,36.0675843,-78.9714771
PAST SALE,November-29-2017,Single Family Residential,5016 Raintree Rd,Durham,NC,27712,230000,4,2.0,Haven Hill,2206,24001,1974,905,104,,Sold,,,http://www.redfin.com/NC/Durham/5016-Raintree-Rd-27712/home/43577311,TMLS,2123921,N,Y,36.0772816,-78.9549197
PAST SALE,,Single Family Residential,5309 Stardust Dr,Durham,NC,27712,184000,3,2.0,,1359,18034,1995,,135,,,,,http://www.redfin.com/NC/Durham/5309-Stardust-Dr-27712/home/43577420,,,N,Y,36.0877221,-78.8949781
PAST SALE,November-16-2017,Single Family Residential,5 Spring Water Ln,Durham,NC,27712,257000,4,3.5,Snow Hill Preserve,2113,14244,2006,918,122,25,Sold,,,http://www.redfin.com/NC/Durham/5-Spring-Water-Ln-27712/home/43600718,TMLS,2154916,N,Y,36.1031848,-78.8724332
PAST SALE,,Vacant Land,1000 Infinity Rd,Durham,NC,27712,248000,4,2.5,,3600,664638,1972,,69,,,,,http://www.redfin.com/NC/Durham/1000-Infinity-Rd-27712/home/43574821,,,N,Y,36.080526,-78.888605
PAST SALE,February-25-2019,Single Family Residential,510 Hidden Treasure Dr,Durham,NC,27712,260000,4,2.5,Madison Glen,2659,6969,2011,452,98,44,Sold,,,http://www.redfin.com/NC/Durham/510-Hidden-Treasure-Dr-27712/home/43612244,TMLS,2228068,N,Y,36.0957108,-78.9176635
PAST SALE,April-5-2018,Single Family Residential,833 Amarillo Rose Ln,Durham,NC,27712,243000,4,2.5,Madison Glen,2382,7840,2011,778,102,40,Sold,,,http://www.redfin.com/NC/Durham/833-Amarillo-Rose-Ln-27712/home/43612644,TMLS,2174137,N,Y,36.0956495,-78.9192548
PAST SALE,March-29-2018,Single Family Residential,450 Walsenburg Dr,Durham,NC,27712,254000,4,3.0,Madison Glen,2239,6098,2015,785,113,40,Sold,,,http://www.redfin.com/NC/Durham/450-Walsenburg-Dr-27712/home/43612159,TMLS,2171579,N,Y,36.0938617,-78.9198737
PAST SALE,September-7-2017,Single Family Residential,2011 Brocton Pl,Durham,NC,27712,265000,4,3.0,Greymoss,2330,22084,1975,988,114,,Sold,,,http://www.redfin.com/NC/Durham/2011-Brocton-Pl-27712/home/43581345,TMLS,2121531,N,Y,36.0857639,-78.9509287
PAST SALE,February-16-2018,Single Family Residential,2 Smoketree Ct,Durham,NC,27712,244000,4,2.5,Autumn Ridge,2400,13068,2001,826,102,15,Sold,,,http://www.redfin.com/NC/Durham/2-Smoketree-Ct-27712/home/43588299,TMLS,2145112,N,Y,36.0853107,-78.9375179
PAST SALE,April-20-2018,Single Family Residential,3218 Wilderness Rd,Durham,NC,27712,285000,5,2.5,Fieldstone by the Eno,2751,14374,1998,763,104,12,Sold,,,http://www.redfin.com/NC/Durham/3218-Wilderness-Rd-27712/home/43573787,TMLS,2169798,N,Y,36.0660745,-78.9484499
PAST SALE,June-29-2018,Single Family Residential,418 Birchrun Dr,Durham,NC,27712,255000,4,2.5,Madison Glen,2422,7579,2010,693,105,40,Sold,,,http://www.redfin.com/NC/Durham/418-Birchrun-Dr-27712/home/43612242,TMLS,2193459,N,Y,36.0963998,-78.9169563
PAST SALE,October-21-2019,Single Family Residential,5303 Stardust Dr,Durham,NC,27712-9580,265000,4,2.5,Vantage Pointe,1953,12632,1996,214,136,31,Sold,,,http://www.redfin.com/NC/Durham/5303-Stardust-Dr-27712/home/43575489,TMLS,2268792,N,Y,36.0869795,-78.8951173
PAST SALE,June-20-2017,Single Family Residential,309 Country Club Dr,Durham,NC,27712,299900,4,2.0,Willowhaven,2729,21083,1976,1067,110,,Sold,,,http://www.redfin.com/NC/Durham/309-Country-Club-Dr-27712/home/43576541,TMLS,2127442,N,Y,36.0708464,-78.9683072
PAST SALE,December-1-2017,Single Family Residential,1003 Lakeview Rd,Durham,NC,27712,270000,4,2.5,Ashfield Place,2242,10018,2010,903,120,55,Sold,,,http://www.redfin.com/NC/Durham/1003-Lakeview-Rd-27712/home/43610653,TMLS,2157974,N,Y,36.0977742,-78.927653
PAST SALE,August-31-2018,Single Family Residential,516 Loblolly Dr,Durham,NC,27712,283800,4,3.0,Treyburn,2388,12196,2003,630,119,46,Sold,,,http://www.redfin.com/NC/Durham/516-Loblolly-Dr-27712/home/43584797,TMLS,2201777,N,Y,36.1275281,-78.8532603
PAST SALE,August-17-2018,Single Family Residential,6021 Burgundy Rd,Durham,NC,27712,215751,4,2.5,Durham,1581,89864,2003,644,136,,Sold,,,http://www.redfin.com/NC/Durham/6021-Burgundy-Rd-27712/home/43589827,TMLS,2203883,N,Y,36.1075231,-78.9341563
PAST SALE,July-30-2018,Single Family Residential,814 Amaryllis Ln,Durham,NC,27712,257000,4,2.5,Madison Glen,2462,6969,2010,662,104,40,Sold,,,http://www.redfin.com/NC/Durham/814-Amaryllis-Ln-27712/home/43610284,TMLS,2206639,N,Y,36.0970517,-78.9158512
PAST SALE,,Single Family Residential,825 Amarillo Rose Ln,Durham,NC,27712,205000,4,2.5,,2031,6621,2011,,101,,,,,http://www.redfin.com/NC/Durham/825-Amarillo-Rose-Ln-27712/home/43613458,,,N,Y,36.0953648,-78.9189012
PAST SALE,December-17-2018,Single Family Residential,4228 Lazyriver Dr,Durham,NC,27712,215000,4,3.0,Eno Trace,1560,11891,1999,522,138,27,Sold,,,http://www.redfin.com/NC/Durham/4228-Lazyriver-Dr-27712/home/43575514,TMLS,2223484,N,Y,36.0775388,-78.8941888
PAST SALE,November-15-2018,Single Family Residential,109 Ponderosa Ln,Durham,NC,27712,175000,4,2.0,Pine Valley,1829,20037,1969,554,96,,Sold,,,http://www.redfin.com/NC/Durham/109-Ponderosa-Ln-27712/home/43577889,TMLS,2219895,N,Y,36.0815614,-78.9224927
PAST SALE,September-27-2018,Single Family Residential,5419 N Highland Dr,Durham,NC,27712-1921,275000,4,3.0,Willowhaven,2590,20211,1977,603,106,,Sold,,,http://www.redfin.com/NC/Durham/5419-Highland-Dr-27712/home/43577332,TMLS,2203367,N,Y,36.0840962,-78.9544284
PAST SALE,,Single Family Residential,16 Clover Hill Pl,Durham,NC,27712,280000,4,2.5,,2350,30100,2003,,119,,,,,http://www.redfin.com/NC/Durham/16-Clover-Hill-Pl-27712/home/43599406,,,N,Y,36.075175,-78.9501692
PAST SALE,February-15-2019,Single Family Residential,3001 Elk Ridge Rd,Durham,NC,27712,273000,4,2.5,BuckWtr Creek,2702,10715,1995,462,101,12,Sold,,,http://www.redfin.com/NC/Durham/3001-Elk-Ridge-Rd-27712/home/43574127,TMLS,2212178,N,Y,36.0645975,-78.9529755
PAST SALE,November-4-2018,Single Family Residential,605 Flagstone Way,Durham,NC,27712-9514,292500,4,3.0,Stephens Woods,3012,16857,1989,565,97,,Sold,,,http://www.redfin.com/NC/Durham/605-Flagstone-Way-27712/home/43575418,TMLS,2204417,N,Y,36.0842838,-78.8999122
PAST SALE,October-26-2018,Single Family Residential,2 Warbler Ln,Durham,NC,27712,205000,4,2.5,Eno Trace,1850,12806,1988,574,111,27,Sold,,,http://www.redfin.com/NC/Durham/2-Warbler-Ln-27712/home/43578194,TMLS,2209998,N,Y,36.0781528,-78.8931277
PAST SALE,November-21-2018,Single Family Residential,12 Shelburn Ct,Durham,NC,27712,293000,4,2.5,Briardale,2390,19602,1996,548,123,,Sold,,,http://www.redfin.com/NC/Durham/12-Shelburn-Ct-27712/home/43578291,TMLS,2218694,N,Y,36.088554,-78.8795368
PAST SALE,September-19-2018,Single Family Residential,1506 Cotherstone Dr,Durham,NC,27712,298000,4,2.5,Willow Hill,2073,20995,1980,611,144,,Sold,,,http://www.redfin.com/NC/Durham/1506-Cotherstone-Dr-27712/home/43579426,TMLS,2198480,N,Y,36.0996182,-78.9385183
PAST SALE,August-14-2017,Single Family Residential,517 Birchrun Dr,Durham,NC,27712,265000,5,3.0,Madison Glen,2787,5924,2011,1012,95,40,Sold,,,http://www.redfin.com/NC/Durham/517-Birchrun-Dr-27712/home/43613460,TMLS,2133430,N,Y,36.0959782,-78.9182824
PAST SALE,October-3-2017,Single Family Residential,5312 Hallmark Rd,Durham,NC,27712,238500,4,2.5,Greymoss,2193,23565,1978,962,109,,Sold,,,http://www.redfin.com/NC/Durham/5312-Hallmark-Rd-27712/home/43581882,TMLS,2148993,N,Y,36.0832515,-78.9464798
PAST SALE,July-13-2018,Single Family Residential,5 Garden Hills Ct,Durham,NC,27712,259900,4,2.5,Dover Ridge,1932,15071,1999,679,135,13,Sold,,,http://www.redfin.com/NC/Durham/5-Garden-Hills-Ct-27712/home/43589459,TMLS,2193565,N,Y,36.0879378,-78.9279344
PAST SALE,March-31-2020,Single Family Residential,446 Walsenburg Dr,Durham,NC,27712,269000,5,3.0,Madison Glen,2073,6098,2014,52,130,40,Sold,,,http://www.redfin.com/NC/Durham/446-Walsenburg-Dr-27712/home/43612158,TMLS,2298669,N,Y,36.0938872,-78.9196969
PAST SALE,,Single Family Residential,505 Hunter St,Durham,NC,27712,110000,3,3.0,,2655,47480,1959,,41,,,,,http://www.redfin.com/NC/Durham/505-Hunter-St-27712/home/43575320,,,N,Y,36.0770211,-78.9241612
PAST SALE,November-8-2019,Single Family Residential,3049 Marywood Dr,Durham,NC,27712,260000,4,2.5,Marywood,2062,40510,1979,196,126,,Sold,,,http://www.redfin.com/NC/Durham/3049-Marywood-Dr-27712/home/43576681,TMLS,2274316,N,Y,36.0607794,-78.9547871
PAST SALE,April-20-2020,Single Family Residential,807 Cardens Creek Dr,Durham,NC,27712,256900,4,3.0,Cardens Creek,1957,32016,1978,32,131,,Sold,,,http://www.redfin.com/NC/Durham/807-Cardens-Creek-Dr-27712/home/43580649,TMLS,2308726,N,Y,36.1059512,-78.9258408
PAST SALE,July-21-2017,Single Family Residential,14 Ballard Ct,Durham,NC,27712,249900,4,2.5,Dover Ridge,2125,11325,2001,1036,118,14,Sold,,,http://www.redfin.com/NC/Durham/14-Ballard-Ct-27712/home/43579109,TMLS,2129576,N,Y,36.089077,-78.9265922
PAST SALE,October-28-2019,Single Family Residential,5510 Carey Pl,Durham,NC,27712,255000,4,2.5,Grande Park,2506,16988,2002,207,102,20,Sold,,,http://www.redfin.com/NC/Durham/5510-Carey-Pl-27712/home/43588219,TMLS,2252850,N,Y,36.0857284,-78.9433238
PAST SALE,April-28-2020,Single Family Residential,6 Firethorn Ct,Durham,NC,27712-3000,284900,4,2.5,BuckWtr Creek,2060,10193,1992,24,138,12,Sold,,,http://www.redfin.com/NC/Durham/6-Firethorn-Ct-27712/home/43595159,TMLS,2307366,N,Y,36.0626892,-78.9545662
PAST SALE,April-7-2020,Single Family Residential,3115 Quincemoor Rd,Durham,NC,27712,263000,4,2.5,Heather Glen,1856,20908,1978,45,142,,Sold,,,http://www.redfin.com/NC/Durham/3115-Quincemoor-Rd-27712/home/43582238,TMLS,2305350,N,Y,36.088146,-78.966565
PAST SALE,,Single Family Residential,412 Wildwood Dr,Durham,NC,27712,120000,5,2.0,,1700,23305,1968,,71,,,,,http://www.redfin.com/NC/Durham/412-Wildwood-Dr-27712/home/43594258,,,N,Y,36.073038,-78.9178846
PAST SALE,May-3-2019,Single Family Residential,2103 Bayleaf Dr,Durham,NC,27712,285000,4,2.5,Greymoss,2323,39944,1979,385,123,,Sold,,,http://www.redfin.com/NC/Durham/2103-Bayleaf-Dr-27712/home/43578490,TMLS,2246350,N,Y,36.0821941,-78.9503353
PAST SALE,September-12-2017,Vacant Land,26 & 28 Grandwood Cir,Durham,NC,,40000,,,Treyburn,,10193,,983,,,Sold,,,http://www.redfin.com/NC/Durham/28-Grandwood-Cir-27712/home/43598837,TMLS,2118302,N,Y,36.121074,-78.85682
PAST SALE,March-29-2018,Single Family Residential,3105 Deerchase Wynd,Durham,NC,27712,285000,4,2.5,Fieldstone by the Eno,2669,25003,1991,785,107,12,Sold,,,http://www.redfin.com/NC/Durham/3105-Deerchase-Wynd-27712/home/43578160,TMLS,2165347,N,Y,36.0637119,-78.9545052
PAST SALE,July-2-2018,Single Family Residential,5607 Ventura Dr,Durham,NC,27712,262000,4,2.5,Greymoss,2113,22041,1977,690,124,,Sold,,,http://www.redfin.com/NC/Durham/5607-Ventura-Dr-27712/home/43578503,TMLS,2194367,N,Y,36.0873031,-78.9489986
PAST SALE,,Single Family Residential,4203 Scottsdale St,Durham,NC,27712,83000,4,3.5,,3406,15028,2015,,24,,,,,http://www.redfin.com/NC/Durham/4203-Scottsdale-St-27712/home/43607320,,,N,Y,36.0699297,-78.9363155
PAST SALE,August-9-2018,Single Family Residential,14 Otters Run,Durham,NC,27712,280000,4,2.5,Trappers Creek,2127,20475,1996,652,132,,Sold,,,http://www.redfin.com/NC/Durham/14-Otters-Run-27712/home/43577711,TMLS,2201013,N,Y,36.0762632,-78.9484618
PAST SALE,January-10-2019,Single Family Residential,3119 Quincemoor Rd,Durham,NC,27712,279000,4,3.0,Heather Glen,2431,26528,1980,498,115,,Sold,,,http://www.redfin.com/NC/Durham/3119-Quincemoor-Rd-27712/home/43581767,TMLS,2228121,N,Y,36.088026,-78.966944
PAST SALE,October-11-2018,Single Family Residential,226 Smith Dr,Durham,NC,27712-1626,155500,4,2.0,Brentwood,1918,32800,1972,589,81,,Sold,,,http://www.redfin.com/NC/Durham/226-Smith-Dr-27712/home/43582027,TMLS,2213239,N,Y,36.1006816,-78.9030239
PAST SALE,October-31-2018,Single Family Residential,3104 Broomsedge Way,Durham,NC,27712,267000,4,2.5,BuckWtr Creek,2040,10890,1996,569,131,12,Sold,,,http://www.redfin.com/NC/Durham/3104-Broomsedge-Way-27712/home/43577608,TMLS,2216830,N,Y,36.0648666,-78.9527104
PAST SALE,January-4-2019,Single Family Residential,2926 Tavistock Dr,Durham,NC,27712,260000,4,3.0,Willowhaven,2400,33062,1985,504,108,,Sold,,,http://www.redfin.com/NC/Durham/2926-Tavistock-Dr-27712/home/43576388,TMLS,2222476,N,Y,36.0858657,-78.9705604
PAST SALE,,Single Family Residential,813 Briana Dr,Durham,NC,27712,260000,4,3.0,,2161,6186,2013,,120,,,,,http://www.redfin.com/NC/Durham/813-Briana-Dr-27712/home/43611170,,,N,Y,36.0944904,-78.9176193
PAST SALE,,Single Family Residential,4818 Seterra Bnd,Durham,NC,27712,260000,4,2.5,,2554,30448,1973,,102,,,,,http://www.redfin.com/NC/Durham/4818-Seterra-Bnd-27712/home/43574822,,,N,Y,36.0824708,-78.882781
PAST SALE,November-1-2018,Townhouse,33 Grandwood Cir,Durham,NC,27712,280000,4,3.5,Treyburn,2153,5227,2015,568,130,265,Sold,,,http://www.redfin.com/NC/Durham/33-Grandwood-Cir-27712/home/43599341,TMLS,2190297,N,Y,36.121295,-78.856295
PAST SALE,July-30-2019,Single Family Residential,8 Hawthorne Dr,Durham,NC,27712,240000,4,2.5,Huckleberry Heights,1812,17859,1948,297,132,,Sold,,,http://www.redfin.com/NC/Durham/8-Hawthorne-Dr-27712/home/43571751,TMLS,2254371,N,Y,36.0463456,-78.9655569
PAST SALE,December-20-2018,Single Family Residential,1803 Sassafras Hill St,Durham,NC,27712-3711,275000,4,2.5,Snow Hill Preserve,2403,11325,2007,519,114,25,Sold,,,http://www.redfin.com/NC/Durham/1803-Sassafras-Hill-St-27712/home/43598622,TMLS,2209904,N,Y,36.1032826,-78.8712391
PAST SALE,March-5-2019,Single Family Residential,5115 Stephens Ln,Durham,NC,27712,260000,4,3.5,Stephens Woods,3023,107157,1967,444,86,,Sold,,,http://www.redfin.com/NC/Durham/5115-Stephens-Ln-27712/home/43578649,TMLS,2203127,N,Y,36.0862785,-78.898389
PAST SALE,April-26-2019,Single Family Residential,3 Spring Water Ln,Durham,NC,27712-3717,280000,4,2.5,Snowhill,2296,12806,2007,392,122,25,Sold,,,http://www.redfin.com/NC/Durham/3-Spring-Water-Ln-27712/home/43595385,TMLS,2242076,N,Y,36.1032935,-78.8726985
PAST SALE,November-26-2018,Single Family Residential,5116 Hallmark Rd,Durham,NC,27712,282000,4,2.5,Trappers Creek,2497,29969,1983,543,113,,Sold,,,http://www.redfin.com/NC/Durham/5116-Hallmark-Rd-27712/home/43577730,TMLS,2216373,N,Y,36.0798896,-78.9473194
PAST SALE,January-14-2019,Single Family Residential,5412 Stephens Ln,Durham,NC,27712,288000,4,3.0,Oakdale,2760,110947,1988,494,104,,Sold,,,http://www.redfin.com/NC/Durham/5412-Stephens-Ln-27712/home/43578051,TMLS,2223377,N,Y,36.0916993,-78.8970658
PAST SALE,,Single Family Residential,2029 Bayleaf Dr,Durham,NC,27712,184000,4,3.0,,2418,21388,1978,,76,,,,,http://www.redfin.com/NC/Durham/2029-Bayleaf-Dr-27712/home/43581426,,,N,Y,36.0831163,-78.9490869
PAST SALE,June-26-2018,Single Family Residential,4620 Paces Ferry Rd,Durham,NC,27712,300000,4,2.5,Ashfield Place,2853,9147,2003,696,105,55,Sold,,,http://www.redfin.com/NC/Durham/4620-Paces-Ferry-Dr-27712/home/43592653,TMLS,2194007,N,Y,36.093716,-78.9305236
PAST SALE,,Single Family Residential,1807 Redding Ln,Durham,NC,27712,260000,4,2.5,,2069,14854,2000,,126,,,,,http://www.redfin.com/NC/Durham/1807-Redding-Ln-27712/home/43588258,,,N,Y,36.0833265,-78.9445796
PAST SALE,July-29-2019,Single Family Residential,715 Continental Dr,Durham,NC,27712,285000,5,2.5,Country Club Heights,2514,12632,2001,298,113,22,Sold,,,http://www.redfin.com/NC/Durham/715-Continental-Dr-27712/home/43589060,TMLS,2261001,N,Y,36.0736348,-78.9766569
PAST SALE,,Single Family Residential,2417 WOOD HAVEN DR,DURHAM,NC,27712,87000,4,3.5,,3964,126977,1995,,22,,,,,http://www.redfin.com/NC/DURHAM/2417-WOOD-HAVEN-DR-27712/home/43580785,,,N,Y,36.110061,-78.952179
PAST SALE,May-20-2019,Single Family Residential,516 Birchrun Dr,Durham,NC,27712,265000,4,2.5,Madison Glen,2547,6098,2011,368,104,44,Sold,,,http://www.redfin.com/NC/Durham/516-Birchrun-Dr-27712/home/43611639,TMLS,2249008,N,Y,36.0963976,-78.9182824
PAST SALE,,Single Family Residential,801 Prologue Rd,Durham,NC,27712,250000,3,2.0,,1686,29926,1977,,148,,,,,http://www.redfin.com/NC/Durham/801-Prologue-Rd-27712/home/43581137,,,N,Y,36.1008996,-78.9247358
PAST SALE,August-7-2019,Single Family Residential,115 Lark Ln,Durham,NC,27712,265000,4,3.0,Willowhaven,2828,31232,1980,289,94,,Sold,,,http://www.redfin.com/NC/Durham/115-Lark-Ln-27712/home/43576974,TMLS,2244384,N,Y,36.0750268,-78.9647506
PAST SALE,June-27-2019,Single Family Residential,202 Mason Rd,Durham,NC,27712,261900,3,2.5,Durham,1632,33541,2019,330,160,,Sold,,,http://www.redfin.com/NC/Durham/202-Mason-Rd-27712/home/43581695,TMLS,2241986,N,Y,36.119202,-78.905554
PAST SALE,August-2-2018,Single Family Residential,6512 Craig Rd,Durham,NC,27712-9244,265000,4,2.5,Durham,2410,207781,1982,659,110,,Sold,,,http://www.redfin.com/NC/Durham/6512-Craig-Rd-27712/home/43580273,TMLS,2193454,N,Y,36.0974289,-78.9695001
PAST SALE,August-13-2019,Single Family Residential,5011 Mckittrick Ln,Durham,NC,27712,293000,4,2.5,Latta Woods,2773,11325,2006,283,106,27,Sold,,,http://www.redfin.com/NC/Durham/5011-McKittrick-Ln-27712/home/43592658,TMLS,2265418,N,Y,36.078549,-78.916249
PAST SALE,August-29-2019,Single Family Residential,639 Donlee Dr,Durham,NC,27712-3324,278000,4,2.5,Milton Forest,2403,45825,1972,267,116,,Sold,,,http://www.redfin.com/NC/Durham/639-Donlee-Dr-27712/home/43582022,TMLS,2262532,N,Y,36.1126901,-78.9207577
PAST SALE,December-28-2017,Single Family Residential,5028 Gatewood Dr,Durham,NC,27712,201500,4,3.0,Brogden Heights,2271,20081,1966,876,89,,Sold,,,http://www.redfin.com/NC/Durham/5028-Gatewood-Dr-27712/home/43578366,TMLS,2162995,N,Y,36.082066,-78.924909
PAST SALE,July-3-2017,Single Family Residential,730 Crestview Dr,Durham,NC,27712,257900,4,2.0,Hickory Ridge,1890,47916,1960,1054,136,,Sold,,,http://www.redfin.com/NC/Durham/730-Crestview-Dr-27712/home/43578607,TMLS,2129372,N,Y,36.091306,-78.9011849
PAST SALE,September-4-2019,Single Family Residential,105 Fairntosh Pl,Durham,NC,27712,260000,4,2.5,Heather Glen,2115,21910,1977,261,123,,Sold,,,http://www.redfin.com/NC/Durham/105-Fairntosh-Pl-27712/home/43581401,TMLS,2265351,N,Y,36.0898064,-78.9619451
PAST SALE,June-26-2019,Single Family Residential,4704 Paces Ferry Dr,Durham,NC,27712,299000,4,2.5,Ashfield Place,3220,8712,2002,331,93,55,Sold,,,http://www.redfin.com/NC/Durham/4704-Paces-Ferry-Dr-27712/home/43598164,TMLS,2248103,N,Y,36.0944052,-78.930751
PAST SALE,May-30-2018,Single Family Residential,3110 Deerchase Wynd,Durham,NC,27712,250000,4,2.5,,,11194,1992,723,,10,Sold,,,http://www.redfin.com/NC/Durham/3110-Deerchase-Wynd-27712/home/43577637,Triad MLS,858975,N,Y,36.0641423,-78.9539476
PAST SALE,August-14-2017,Single Family Residential,103 Alnick Ct,Durham,NC,27712,230000,4,2.5,Fitzford Estates,2352,29620,1979,1012,98,,Sold,,,http://www.redfin.com/NC/Durham/103-Alnick-Ct-27712/home/43578728,TMLS,2134076,N,Y,36.088883,-78.9560685
PAST SALE,March-8-2018,Single Family Residential,1710 Mohegan Dr,Durham,NC,27712,295000,4,3.0,Heritage Heights,2366,30274,1973,806,125,,Sold,,,http://www.redfin.com/NC/Durham/1710-Mohegan-Dr-27712/home/43578138,TMLS,2166665,N,Y,36.0805488,-78.9426793
PAST SALE,June-28-2017,Single Family Residential,5 Otters Run,Durham,NC,27712,260000,4,2.5,Trappers Creek,2077,24829,1995,1059,125,,Sold,,,http://www.redfin.com/NC/Durham/5-Otters-Run-27712/home/43581716,TMLS,2128655,N,Y,36.0771992,-78.9481083
PAST SALE,June-12-2017,Single Family Residential,604 Flagstone Way,Durham,NC,27712,300000,4,2.5,Stephens Woods,3250,15071,1989,1075,92,,Sold,,,http://www.redfin.com/NC/Durham/604-Flagstone-Way-27712/home/43575885,TMLS,2124811,N,Y,36.0838231,-78.8994943
PAST SALE,August-11-2017,Single Family Residential,615 Flagstone Way,Durham,NC,27712,262500,4,2.5,Stephens Woods,2692,23522,1991,1015,98,,Sold,,,http://www.redfin.com/NC/Durham/615-Flagstone-Way-27712/home/43594382,TMLS,2129445,N,Y,36.0848337,-78.8987297
PAST SALE,June-14-2018,Single Family Residential,109 Sonnett Pl,Durham,NC,27712,232500,4,2.5,Heather Glen,2228,82764,1980,708,104,,Sold,,,http://www.redfin.com/NC/Durham/109-Sonnett-Pl-27712/home/43581262,TMLS,2188312,N,Y,36.0879399,-78.9657889
PAST SALE,June-13-2017,Single Family Residential,1709 Autumn Ridge Dr,Durham,NC,27712-4601,250000,4,2.5,Autumn Ridge,2328,11456,2002,1074,107,15,Sold,,,http://www.redfin.com/NC/Durham/1709-Autumn-Ridge-Dr-27712/home/43589350,TMLS,2120797,N,Y,36.0861833,-78.9428748
PAST SALE,May-23-2017,Single Family Residential,3100 Mellwood Dr,Durham,NC,27712-3029,280000,4,2.5,Fieldstone by the Eno,2674,10018,1993,1095,105,12,Sold,,,http://www.redfin.com/NC/Durham/3100-Mellwood-Dr-27712/home/43578084,TMLS,2117728,N,Y,36.0645617,-78.9502116
PAST SALE,January-18-2018,Single Family Residential,1 Bay Bush Ct,Durham,NC,27712,299000,4,2.5,Country Club Heights,2631,10890,2008,855,114,22,Sold,,,http://www.redfin.com/NC/Durham/1-Bay-Bush-Ct-27712/home/43600783,TMLS,2159473,N,Y,36.0708235,-78.9748456
PAST SALE,,Single Family Residential,823 Prologue Rd,Durham,NC,27712,222500,4,2.0,,1856,29839,1978,,120,,,,,http://www.redfin.com/NC/Durham/823-Prologue-Rd-27712/home/43581138,,,N,Y,36.10101,-78.9263712
PAST SALE,November-7-2017,Single Family Residential,1618 Crystal Creek Dr,Durham,NC,27712-2484,296000,4,3.0,Autumn Ridge,2926,13547,2004,927,101,15,Sold,,,http://www.redfin.com/NC/Durham/1618-Crystal-Creek-Dr-27712/home/43596939,TMLS,2147546,N,Y,36.0870068,-78.9404519
PAST SALE,March-28-2018,Single Family Residential,409 Walsenburg Dr,Durham,NC,27712,232000,5,3.0,Madison Glen,2141,6098,2014,786,108,40,Sold,,,http://www.redfin.com/NC/Durham/409-Walsenburg-Dr-27712/home/43611153,TMLS,2173028,N,Y,36.093622,-78.9177519
PAST SALE,January-5-2018,Single Family Residential,14 St Albans Ct,Durham,NC,27712,271000,4,2.5,Durham,2422,29620,2002,868,112,25,Sold,,,http://www.redfin.com/NC/Durham/14-St-Albans-Ct-27712/home/43588352,TMLS,2154688,N,Y,36.0971816,-78.9307468
PAST SALE,April-9-2018,Single Family Residential,6201 Dello St,Durham,NC,27712,259500,4,2.5,Milton Forest,2507,27878,1971,774,104,,Sold,,,http://www.redfin.com/NC/Durham/6201-Dello-St-27712/home/43581450,TMLS,2169743,N,Y,36.1142537,-78.9216749
PAST SALE,November-12-2017,Single Family Residential,5305 Dover Ridge Ln,Durham,NC,27712,279000,5,2.5,Dover Ridge,2940,12022,1997,922,95,14,Sold,,,http://www.redfin.com/NC/Durham/5305-Dover-Ridge-Ln-27712/home/43578525,TMLS,2140446,N,Y,36.0883843,-78.9331508
PAST SALE,June-26-2018,Single Family Residential,2 Otters Run,Durham,NC,27712,257000,4,2.5,Trappers Creek,2250,16291,1996,696,114,,Sold,,,http://www.redfin.com/NC/Durham/2-Otters-Run-27712/home/43580719,TMLS,2191627,N,Y,36.077155,-78.9490427
PAST SALE,June-16-2017,Single Family Residential,8 Shelburn Ct,Durham,NC,27712,262500,4,2.5,Briardale,2227,16814,1996,1071,118,,Sold,,,http://www.redfin.com/NC/Durham/8-Shelburn-Ct-27712/home/43578265,TMLS,2128060,N,Y,36.0881109,-78.8790449
PAST SALE,March-16-2020,Single Family Residential,5 Brown Bark Ct,Durham,NC,27712,258000,4,2.5,Stephens Woods,2060,20473,1987,67,125,,Sold,,,http://www.redfin.com/NC/Durham/5-Brown-Bark-Ct-27712/home/43575413,TMLS,2282605,N,Y,36.0831348,-78.8986608
PAST SALE,November-8-2019,Single Family Residential,335 Smith Dr,Durham,NC,27712,255000,4,2.5,Brentwood,1968,20386,1973,196,130,,Sold,,,http://www.redfin.com/NC/Durham/335-Smith-Dr-27712/home/43579940,TMLS,2275943,N,Y,36.0991359,-78.8995385
PAST SALE,December-5-2019,Single Family Residential,2008 Brocton Pl,Durham,NC,27712-2024,295000,4,2.0,Greymoss,2377,24829,1976,169,124,,Sold,,,http://www.redfin.com/NC/Durham/2008-Brocton-Pl-27712/home/43578866,TMLS,2284741,N,Y,36.0863562,-78.9505452
PAST SALE,December-13-2019,Single Family Residential,402 Hidden Treasure Dr,Durham,NC,27712-1466,271000,4,2.5,Madison Glen,2170,7405,2008,161,125,40,Sold,,,http://www.redfin.com/NC/Durham/402-Hidden-Treasure-Dr-27712/home/43610750,TMLS,2282950,N,Y,36.0974284,-78.9162932
PAST SALE,,Single Family Residential,6302 Cabin Branch Dr,Durham,NC,27712,33000,5,4.0,,3542,20255,2017,,9,,,,,http://www.redfin.com/NC/Durham/6302-Cabin-Branch-Dr-27712/home/43602917,,,N,Y,36.108593,-78.872023
PAST SALE,August-30-2017,Single Family Residential,114 Perth Pl,Durham,NC,27712,285000,4,2.5,Heather Glen,2464,21780,1977,996,116,,Sold,,,http://www.redfin.com/NC/Durham/114-Perth-Pl-27712/home/43581389,TMLS,2131730,N,Y,36.0879022,-78.9617683
PAST SALE,September-17-2017,Single Family Residential,4 Powder Springs Pl,Durham,NC,27712,267500,4,2.5,Dover Ridge,2437,15681,2000,978,110,13,Sold,,,http://www.redfin.com/NC/Durham/4-Powder-Springs-Pl-27712/home/43594220,TMLS,2142722,N,Y,36.0900578,-78.9277203
PAST SALE,September-11-2017,Single Family Residential,129 Baldwin Dr,Durham,NC,27712-2942,167500,4,1.5,Durham,1275,21170,1968,984,131,,Sold,,,http://www.redfin.com/NC/Durham/129-Baldwin-Dr-27712/home/43571871,TMLS,2146886,N,Y,36.0533456,-78.9710022
PAST SALE,August-25-2017,Single Family Residential,2020 Umstead Rd,Durham,NC,27712,275000,4,3.0,Trappers Creek,2878,29054,1983,1001,96,,Sold,,,http://www.redfin.com/NC/Durham/2020-Umstead-Rd-27712/home/43577254,TMLS,2112894,N,Y,36.0769745,-78.9511638
PAST SALE,July-6-2017,Single Family Residential,11 Brickstone Pl,Durham,NC,27712,225000,4,2.5,Ashfield Place,2500,11412,2002,1051,90,55,Sold,,,http://www.redfin.com/NC/Durham/11-Brickstone-Pl-27712/home/43591684,TMLS,2125004,N,Y,36.0909555,-78.9318638
PAST SALE,October-4-2017,Single Family Residential,5623 Centennial Dr,Durham,NC,27712-1235,215000,4,3.0,Willow Hill,2265,30927,1980,961,95,,Sold,,,http://www.redfin.com/NC/Durham/5623-Centennial-Dr-27712/home/43580893,TMLS,2146795,N,Y,36.0977907,-78.9403518
PAST SALE,,Single Family Residential,24 Indigo Creek Trl,Durham,NC,27712,250000,4,2.5,,2166,3964,1999,,115,,,,,http://www.redfin.com/NC/Durham/24-Indigo-Creek-Trl-27712/home/43577196,,,N,Y,36.074555,-78.949871
PAST SALE,November-9-2017,Single Family Residential,5324 Lake Vista Dr,Durham,NC,27712,290000,4,2.5,Willowhaven,2695,56628,1968,925,108,,Sold,,,http://www.redfin.com/NC/Durham/5324-Lake-Vista-Dr-27712/home/43576286,TMLS,2152674,N,Y,36.0819703,-78.955715
PAST SALE,August-10-2017,Single Family Residential,5110 Paces Ferry Dr,Durham,NC,27712,275000,4,2.5,Ashfield Place,2517,13068,2012,1016,109,55,Sold,,,http://www.redfin.com/NC/Durham/5110-Paces-Ferry-Dr-27712/home/43606848,TMLS,2139242,N,Y,36.0936732,-78.9295535
PAST SALE,June-8-2017,Single Family Residential,5603 Falkirk Dr,Durham,NC,27712,203000,4,3.0,Heather Glen,2433,30884,1976,1079,83,,Sold,,,http://www.redfin.com/NC/Durham/5603-Falkirk-Dr-27712/home/43578745,TMLS,2114344,N,Y,36.0899855,-78.9625194
PAST SALE,July-20-2017,Single Family Residential,5117 Paces Ferry Dr,Durham,NC,27712,299900,5,4.0,Ashfield Place,3217,9888,2006,1037,93,55,Sold,,,http://www.redfin.com/NC/Durham/5117-Paces-Ferry-Dr-27712/home/43601804,TMLS,2121804,N,Y,36.0928831,-78.9294897
PAST SALE,August-11-2017,Single Family Residential,5 Warbler Ln,Durham,NC,27712,196000,4,2.5,Eno Trace,1861,10367,1988,1015,105,27,Sold,,,http://www.redfin.com/NC/Durham/5-Warbler-Ln-27712/home/43576189,TMLS,2138441,N,Y,36.0783022,-78.8925879
PAST SALE,August-31-2017,Single Family Residential,219 Latta Rd,Durham,NC,27712,220000,4,2.0,Lochaven Hills,2190,95832,1968,995,100,,Sold,,,http://www.redfin.com/NC/Durham/219-Latta-Rd-27712/home/43575377,TMLS,2132194,N,Y,36.0774973,-78.9166054
PAST SALE,November-29-2017,Single Family Residential,5302 Big Fork Dr,Durham,NC,27712,300000,4,3.0,Durham,3175,45694,2003,905,94,,Sold,,,http://www.redfin.com/NC/Durham/5302-Big-Fork-Rd-27712/home/43591470,TMLS,2139662,N,Y,36.076225,-78.9778938
PAST SALE,January-5-2018,Single Family Residential,3 Brightfield Ln,Durham,NC,27712,278500,5,3.0,Ashfield Place,3317,9888,2010,868,84,55,Sold,,,http://www.redfin.com/NC/Durham/3-Brightfield-Ln-27712/home/43610448,TMLS,2159006,N,Y,36.0919287,-78.9281612
PAST SALE,September-15-2017,Single Family Residential,829 Amarillo Rose Ln,Durham,NC,27712,260500,4,2.5,Madison Glen,2586,6969,2011,980,101,40,Sold,,,http://www.redfin.com/NC/Durham/829-Amarillo-Rose-Ln-27712/home/43613134,TMLS,2143475,N,Y,36.0954233,-78.919078
PAST SALE,July-12-2017,Single Family Residential,524 Loblolly Dr,Durham,NC,27712-8723,300000,5,3.0,Treyburn,2712,13068,2001,1045,111,43,Sold,,,http://www.redfin.com/NC/Durham/524-Loblolly-Dr-27712/home/43584792,TMLS,2130573,N,Y,36.1274789,-78.8542997
PAST SALE,July-18-2017,Single Family Residential,413 Birchrun Dr,Durham,NC,27712,265000,4,3.5,Madison Glen,3140,6054,2008,1039,84,40,Sold,,,http://www.redfin.com/NC/Durham/413-Birchrun-Dr-27712/home/43608786,TMLS,2129392,N,Y,36.0959893,-78.9166027
PAST SALE,November-21-2019,Single Family Residential,216 Smith Dr,Durham,NC,27712,252000,4,2.0,Brentwood,1919,30056,1972,183,131,,Sold,,,http://www.redfin.com/NC/Durham/216-Smith-Dr-27712/home/43581020,TMLS,2280873,N,Y,36.1008043,-78.9036864
PAST SALE,April-6-2020,Single Family Residential,809 Amarillo Rose Ln,Durham,NC,27712,264500,5,3.0,Madison Glen,2050,6098,2012,46,129,40,Sold,,,http://www.redfin.com/NC/Durham/809-Amarillo-Rose-Ln-27712/home/43613501,TMLS,2277424,N,Y,36.0953285,-78.9180614
PAST SALE,February-28-2019,Single Family Residential,1229 Bramble Dr,Durham,NC,27712,204800,4,2.5,Willow Hill,1925,20037,1974,449,106,,Sold,,,http://www.redfin.com/NC/Durham/1229-Bramble-Dr-27712/home/43578773,TMLS,2223502,N,Y,36.0952074,-78.9347687
PAST SALE,May-1-2019,Single Family Residential,2 Moonbeam Dr,Durham,NC,27712,250500,5,3.0,Madison Glen,2035,6446,2015,387,123,44,Sold,,,http://www.redfin.com/NC/Durham/2-Moonbeam-Ct-27712/home/43612157,TMLS,2241516,N,Y,36.0936973,-78.9203599
PAST SALE,July-2-2019,Single Family Residential,4912 Reigal Wood Rd,Durham,NC,27712,259000,4,3.0,Heritage Heights,1795,21431,1973,325,144,,Sold,,,http://www.redfin.com/NC/Durham/4912-Reigal-Wood-Rd-27712/home/43580675,TMLS,2258249,N,Y,36.0793964,-78.9414504
PAST SALE,June-10-2019,Single Family Residential,2013 Bivins Rd,Durham,NC,27712,298900,4,2.5,Greymoss,2260,23522,1978,347,132,,Sold,,,http://www.redfin.com/NC/Durham/2013-Bivins-Rd-27712/home/43578924,TMLS,2243801,N,Y,36.08746,-78.9482455
PAST SALE,,Single Family Residential,911 Prologue Rd,Durham,NC,27712,250000,4,2.0,,1901,29882,1994,,132,,,,,http://www.redfin.com/NC/Durham/911-Prologue-Rd-27712/home/43580037,,,N,Y,36.1010382,-78.9276861
PAST SALE,,Single Family Residential,1617 Stacy Dr,Durham,NC,27712,150000,4,3.0,,2136,20386,1973,,70,,,,,http://www.redfin.com/NC/Durham/1617-Stacy-Dr-27712/home/43580678,,,N,Y,36.0765095,-78.9413049
PAST SALE,June-7-2019,Single Family Residential,4226 Lazyriver Dr,Durham,NC,27712,222500,4,2.5,Eno Trace,1778,13939,1999,350,125,27,Sold,,,http://www.redfin.com/NC/Durham/4226-Lazyriver-Dr-27712/home/43594659,TMLS,2254944,N,Y,36.0777066,-78.8941888
PAST SALE,June-28-2019,Single Family Residential,6003 Baird St,Durham,NC,27712,251500,4,2.5,Durham,2036,23958,1972,329,124,,Sold,,,http://www.redfin.com/NC/Durham/6003-Baird-St-27712/home/43582187,TMLS,2249952,N,Y,36.110259,-78.9149229
PAST SALE,July-17-2019,Single Family Residential,907 Shady Ln,Durham,NC,27712,289990,4,3.0,Vantage Pointe,2895,12066,1989,310,100,30,Sold,,,http://www.redfin.com/NC/Durham/907-Shady-Ln-27712/home/43576553,TMLS,2251350,N,Y,36.083677,-78.891615
PAST SALE,July-24-2019,Single Family Residential,525 Birchrun Dr,Durham,NC,27712,268000,4,2.5,Madison Glen,2446,6098,2011,303,110,40,Sold,,,http://www.redfin.com/NC/Durham/525-Birchrun-Dr-27712/home/43613143,TMLS,2256638,N,Y,36.0959734,-78.9186802
PAST SALE,March-22-2018,Single Family Residential,1602 Meadston Dr,Durham,NC,27712,279900,4,2.5,Briardale,2308,20429,1998,792,121,,Sold,,,http://www.redfin.com/NC/Durham/1602-Meadston-Dr-27712/home/43578264,TMLS,2169757,N,Y,36.0866782,-78.8783752
PAST SALE,August-17-2017,Single Family Residential,2731 Heather Glen Rd,Durham,NC,27712,282000,4,3.0,Heather Glen,2603,23435,1976,1009,108,25,Sold,,,http://www.redfin.com/NC/Durham/2731-Heather-Glen-Rd-27712/home/43578983,TMLS,2139053,N,Y,36.0872939,-78.9638007
PAST SALE,December-28-2017,Single Family Residential,200 Cheryl Ave,Durham,NC,27712,205000,4,3.0,Hickory Ridge,2130,19645,1965,876,96,,Sold,,,http://www.redfin.com/NC/Durham/200-Cheryl-Ave-27712/home/43578663,TMLS,2157251,N,Y,36.0850191,-78.9073636
PAST SALE,January-25-2018,Single Family Residential,2012 Redding Ln,Durham,NC,27712,300000,4,2.5,Greymoss,2208,24350,2006,848,136,,Sold,,,http://www.redfin.com/NC/Durham/2012-Redding-Ln-27712/home/43578478,TMLS,2164579,N,Y,36.0826475,-78.9485567
PAST SALE,December-13-2017,Single Family Residential,3 Brown Bark Ct,Durham,NC,27712,252000,4,2.5,Stephens Woods,2175,16857,1987,891,116,,Sold,,,http://www.redfin.com/NC/Durham/3-Brown-Bark-Ct-27712/home/43576365,TMLS,2158704,N,Y,36.0826815,-78.8984605
PAST SALE,March-6-2018,Single Family Residential,23 Round Spring Ln,Durham,NC,27712,220000,4,2.5,Eno Trace,1830,9104,2001,808,120,27,Sold,,,http://www.redfin.com/NC/Durham/23-Round-Spring-Ln-27712/home/43576500,TMLS,2168996,N,Y,36.0768206,-78.8918897
PAST SALE,October-2-2017,Single Family Residential,600 Grist Mill Ln,Durham,NC,27712,225000,4,2.5,Stephens Woods,1867,14810,1993,963,121,,Sold,,,http://www.redfin.com/NC/Durham/600-Grist-Mill-Ln-27712/home/43576872,TMLS,2142430,N,Y,36.0821782,-78.899848
PAST SALE,October-17-2017,Single Family Residential,204 Infinity Rd,Durham,NC,27712,143000,4,3.0,River Forest,1894,12458,1971,948,76,,Sold,,,http://www.redfin.com/NC/Durham/204-Infinity-Rd-27712/home/43575852,TMLS,2152052,N,Y,36.0779809,-78.9063365
PAST SALE,,Single Family Residential,114 Ponderosa Ln,Durham,NC,27712,185000,4,1.5,,1847,19907,1969,,100,,,,,http://www.redfin.com/NC/Durham/114-Ponderosa-Ln-27712/home/43581383,,,N,Y,36.0821129,-78.9228683
PAST SALE,July-11-2017,Single Family Residential,1017 Lakeview Rd,Durham,NC,27712-4121,296000,5,3.0,Ashfield Place,2772,11325,2009,1046,107,55,Sold,,,http://www.redfin.com/NC/Durham/1017-Lakeview-Rd-27712/home/43610658,TMLS,2126045,N,Y,36.0965235,-78.9281833
PAST SALE,May-22-2018,Single Family Residential,2 Powder Springs Pl,Durham,NC,27712,298000,4,2.5,Dover Ridge,2376,15333,1999,731,125,13,Sold,,,http://www.redfin.com/NC/Durham/2-Powder-Springs-Pl-27712/home/43589727,TMLS,2193361,N,Y,36.0902552,-78.9275878
PAST SALE,June-4-2018,Single Family Residential,4234 Lazyriver Dr,Durham,NC,27712,210000,4,2.5,Eno Trace,1737,9060,1999,718,121,30,Sold,,,http://www.redfin.com/NC/Durham/4234-Lazyriver-Dr-27712/home/43594469,TMLS,2189368,N,Y,36.0770478,-78.8943214
PAST SALE,June-12-2018,Single Family Residential,30 Ballard Ct,Durham,NC,27712,255000,4,2.5,Dover Ridge,2155,18992,2002,710,118,13,Sold,,,http://www.redfin.com/NC/Durham/30-Ballard-Ct-27712/home/43582089,TMLS,2179671,N,Y,36.0904322,-78.9254453
PAST SALE,March-31-2020,Single Family Residential,1307 Imperial Dr,Durham,NC,27712,292000,4,2.5,Brogden Heights,2097,20560,1996,52,139,,Sold,,,http://www.redfin.com/NC/Durham/1307-Imperial-Dr-27712/home/43581562,TMLS,2303298,N,Y,36.0866627,-78.926079
PAST SALE,,Single Family Residential,4507 Sterling Dr,Durham,NC,27712,40000,4,3.5,,3318,213444,1974,,12,,,,,http://www.redfin.com/NC/Durham/4507-Sterling-Dr-27712/home/43576644,,,N,Y,36.0739425,-78.9546546
PAST SALE,August-14-2018,Single Family Residential,1104 Kimball Dr,Durham,NC,27712,277000,4,2.5,Durham,2237,19950,2006,647,124,,Sold,,,http://www.redfin.com/NC/Durham/1104-Kimball-Dr-27712/home/43608025,TMLS,2193495,N,Y,36.0431314,-78.962093
PAST SALE,August-6-2019,Single Family Residential,1906 Mystic Dr,Durham,NC,27712,295000,4,2.5,Grandover,2270,17424,2002,290,130,20,Sold,,,http://www.redfin.com/NC/Durham/1906-Mystic-Dr-27712/home/43588224,TMLS,2264093,N,Y,36.0863346,-78.9448274
PAST SALE,October-17-2017,Single Family Residential,5 Timbercreek Ct,Durham,NC,27712,295000,4,2.5,Vantage Pointe,3325,17511,1989,948,89,27,Sold,,,http://www.redfin.com/NC/Durham/5-Timbercreek-Ct-27712/home/44527946,TMLS,2142386,N,Y,36.0851545,-78.8930686
PAST SALE,May-22-2019,Single Family Residential,8 Bluffside Ct,Durham,NC,27712-8701,240000,4,2.5,Vantage Pointe,2608,15681,1994,366,92,32,Sold,,,http://www.redfin.com/NC/Durham/8-Bluffside-Ct-27712/home/43576032,TMLS,2237925,N,Y,36.085791,-78.8930921
PAST SALE,February-27-2019,Single Family Residential,412 Bonhill Dr,Durham,NC,27712,215500,4,2.5,Lochaven Hills,2550,30056,1972,450,85,,Sold,,,http://www.redfin.com/NC/Durham/412-Bonhill-Dr-27712/home/43575836,TMLS,2218810,N,Y,36.0763267,-78.9180614
PAST SALE,May-16-2019,Single Family Residential,5019 Kinlock Dr,Durham,NC,27712,240000,4,2.5,Lochaven Hills,1244,25003,1997,372,193,,Sold,,,http://www.redfin.com/NC/Durham/5019-Kinlock-Dr-27712/home/43575737,TMLS,2247060,N,Y,36.0778197,-78.9232772
PAST SALE,June-14-2019,Single Family Residential,5040 Mckittrick Ln,Durham,NC,27712,270155,4,2.5,Latta Woods,2459,10454,2009,343,110,27,Sold,,,http://www.redfin.com/NC/Durham/5040-McKittrick-Ln-27712/home/43592952,TMLS,2249793,N,Y,36.0809416,-78.9153649
PAST SALE,July-29-2019,Single Family Residential,7 Woodcliff Cir,Durham,NC,27712-3037,267000,4,2.5,Fieldstone by the Eno,2216,11325,1999,298,120,12,Sold,,,http://www.redfin.com/NC/Durham/7-Woodcliff-Cir-27712/home/43573824,TMLS,2251988,N,Y,36.0674982,-78.9503242
PAST SALE,,Single Family Residential,5207 Stephens Ln,Durham,NC,27712,210000,4,2.0,,2504,102758,1970,,84,,,,,http://www.redfin.com/NC/Durham/5207-Stephens-Ln-27712/home/43581632,,,N,Y,36.0875492,-78.8985217
PAST SALE,August-15-2019,Single Family Residential,5030 Raintree Rd,Durham,NC,27712,270000,4,2.0,Havenhill,2051,24001,1978,281,132,,Sold,,,http://www.redfin.com/NC/Durham/5030-Raintree-Rd-27712/home/43576250,TMLS,2259864,N,Y,36.0781964,-78.9548313
PAST SALE,September-3-2019,Single Family Residential,4922 Stephens Ln,Durham,NC,27712,290000,4,3.5,Stephens Woods,2510,17380,1987,262,116,,Sold,,,http://www.redfin.com/NC/Durham/4922-Stephens-Ln-27712/home/43576400,TMLS,2270472,N,Y,36.0813915,-78.8986101
PAST SALE,October-5-2018,Single Family Residential,6918 Windover Dr,Durham,NC,27712,181000,4,2.5,,,217800,1976,595,83,,Sold,,,http://www.redfin.com/NC/Durham/6918-Windover-Dr-27712/home/43583055,Triad MLS,894392,N,Y,36.1333849,-78.940128
PAST SALE,November-15-2018,Single Family Residential,1 Starwood Ln,Durham,NC,27712,259250,4,2.0,Ashfield Place,2325,10323,2003,554,112,55,Sold,,,http://www.redfin.com/NC/Durham/1-Starwood-Ln-27712/home/43593180,TMLS,2220641,N,Y,36.0938165,-78.9309677
PAST SALE,,Single Family Residential,12 Persimmon Ct,Durham,NC,27712,130000,5,3.5,,3154,10237,2013,,41,,,,,http://www.redfin.com/NC/Durham/12-Persimmon-Ct-27712/home/43591791,,,N,Y,36.1251343,-78.8512035
PAST SALE,November-16-2018,Single Family Residential,130 Fleming Dr,Durham,NC,27712,282500,4,3.0,Durham,2306,19776,1964,553,123,,Sold,,,http://www.redfin.com/NC/Durham/130-Fleming-Dr-27712/home/43594716,TMLS,2219918,N,Y,36.0477028,-78.9662749
PAST SALE,February-7-2020,Single Family Residential,221 Waxhaw Dr,Durham,NC,27712,244000,4,2.5,Mason Manor,2213,30012,1978,105,110,,Sold,,,http://www.redfin.com/NC/Durham/221-Waxhaw-Dr-27712/home/43585271,TMLS,2293396,N,Y,36.120425,-78.906336
PAST SALE,April-6-2020,Single Family Residential,4 Shelburn Ct,Durham,NC,27712-9592,289000,4,2.0,Briardale at Kenwood,1915,17206,1996,46,151,,Sold,,,http://www.redfin.com/NC/Durham/4-Shelburn-Ct-27712/home/43578289,TMLS,2304670,N,Y,36.0875848,-78.8787127
PAST SALE,,Single Family Residential,3045 Marywood Dr,Durham,NC,27712,138000,4,2.5,,2106,40075,1979,,66,,,,,http://www.redfin.com/NC/Durham/3045-Marywood-Dr-27712/home/43574188,,,N,Y,36.0606289,-78.954522
PAST SALE,December-13-2019,Single Family Residential,606 Flagstone Way,Durham,NC,27712-9514,245000,4,2.5,Stephens Woods,2417,15638,1989,161,101,,Sold,,,http://www.redfin.com/NC/Durham/606-Flagstone-Way-27712/home/43577386,TMLS,2286747,N,Y,36.0840163,-78.8993175
PAST SALE,March-13-2020,Single Family Residential,5021 Stephens Ln,Durham,NC,27712,297500,4,2.5,Stephens Woods,2595,16552,1991,70,115,,Sold,,,http://www.redfin.com/NC/Durham/5021-Stephens-Ln-27712/home/43575409,TMLS,2300438,N,Y,36.0841173,-78.8976854
PAST SALE,August-7-2017,Single Family Residential,805 Briana Dr,Durham,NC,27712,259000,4,3.5,Madison Glen,2610,6534,2013,1019,99,40,Sold,,,http://www.redfin.com/NC/Durham/805-Briana-Dr-27712/home/43611167,TMLS,2133225,N,Y,36.0946252,-78.9172657
PAST SALE,August-14-2017,Single Family Residential,3008 Snow Hill Rd,Durham,NC,27712,236251,5,3.0,Durham,1789,241583,1961,1012,132,,Sold,,,http://www.redfin.com/NC/Durham/3008-Snow-Hill-Rd-27712/home/43574858,TMLS,2133043,N,Y,36.08598,-78.866259
